address,lat,lng
2100 s archer av,41.85426174412816,-87.63198586874586
400 n laramie,41.8879183222,-87.7554106162966
1300 w cornelia,41.94533245133371,-87.66162070827761
200 w cermak rd,41.85295145325739,-87.63201538496159
2400 n monticello av,41.924665253119116,-87.71825342316583
7200 s phillips,41.76434795582545,-87.56576630481851
700 e 43rd st,41.81680747489747,-87.60902433527613
4700 n winthrop,41.96741621065843,-87.65762880630713
3100 w fillmore,41.868291518754546,-87.703461
6500 s calumet,41.77757784237229,-87.61728902233747
600 w melrose,41.941173817243964,-87.6445123124346
5300 s lake park service,41.79955602417892,-87.58779982988042
2800 w cermak rd,41.85191645325739,-87.69574349999998
2900 w chase,42.01385548600598,-87.7022044730798
2900 w augusta boulevard,41.899342776331906,-87.69933027633188
3800 n fremont,41.951216871780666,-87.65207934394785
1 w randolph,41.88441065945951,-87.62800016871412
1200 s clinton st,41.867165988221004,-87.64078563758983
3100 n broadway st,41.93794033947886,-87.64439933992311
400 e ohio st,41.89267546378896,-87.6172232514571
1800 n paulina,41.914350779903344,-87.6702838757083
7200 s spaulding av,41.762375832361954,-87.7052368265622
100 e bellevue,41.90163353318129,-87.62543141909515
700 n dearborn parkway,41.89503600000001,-87.62977792480797
6900 n greenview,42.00669170699825,-87.66787098388048
4900 n claremont,41.970485016460884,-87.6878101839114
2100 n st louis,41.91920119100559,-87.7135834329015
3200 n eastwood,41.96566270238096,-87.70847097914431
2500 w division,41.90300652986305,-87.68965083527613
1600 n lake shore dr,41.91065695872601,-87.62630016578329
7900 s hermitage,41.75023039975318,-87.6671166066193
100 w kinzie,41.88927985715735,-87.63112015259304
100 s wacker drive,41.87997899999999,-87.63701832209014
300 e walton st,41.90018580046524,-87.61935456050153
3000 n halsted st,41.936640600611696,-87.64917993259823
3100 n milwaukee ave,41.937411331294044,-87.72122830190506
1900 n burlig,41.916086884817354,-87.64724839595452
4100 w dickens ave,41.91904158352342,-87.72912240720595
1600 w 59th st,41.78677152712177,-87.66477207951986
700 w 35th st,41.83081348600598,-87.6438617216227
1 e illinois,41.89078553190564,-87.62795305262176
2300 n milwaukee av,41.92292207631723,-87.69744797766742
3600 w douglas blvd,41.86287349711448,-87.71557452844941
7700 s phillips ave,41.75516713627445,-87.5651068265622
6300 n magnolia,41.99641290563361,-87.66181025444278
1 e bellevue place,41.90149322090818,-87.62828372090819
400 w north av,41.91116879050145,-87.63866129050146
5300 w waveland,41.947895805105006,-87.7595332720424
100 s clark st,41.880445239800345,-87.63086030824036
800 n la salle st,41.896071,-87.63276035956953
4400 w armitage,41.91706948600597,-87.736554
5500 w george st,41.93320870568913,-87.76391990005693
4000 w 26th st,41.844297518754566,-87.72486375437128
800 n may,41.89632635956231,-87.65531885956231
100 w division,41.90398390230461,-87.63154947983702
6200 s albany ave,41.780644658895476,-87.70078730102699
400 w superior st,41.895533460470745,-87.6388635
1400 w cuyler,41.9552624787926,-87.66447219317328
2100 s pulaski,41.853356549541246,-87.72485736652416
200 e chestnut,41.898455453257384,-87.62141219608749
4600 w leland,41.96631972020958,-87.74284196377133
3800 w roscoe,41.942855642729775,-87.72244440802861
2200 w leland,41.96686347879261,-87.68416388926077
2600 w 15th st,41.86114348600597,-87.6910045284494
400 e 41st,41.82030247936953,-87.61448088634657
5400 s shore drive,41.79666972284138,-87.58095890743314
8100 s hermitage,41.746536136274464,-87.66701735209743
3100 w 61st st,41.78271946938176,-87.70090177379036
1000 w belmont av,41.93994067196285,-87.65418294781134
3400 n whipple,41.94336764167674,-87.70406904831002
5400 s kenwood,41.79726868793469,-87.59349346835742
900 e 59th st,41.78780720808268,-87.60333414047652
2600 w lemoyne st,41.90849578729801,-87.692152787298
8100 s cottage grove,41.74739899417162,-87.60515831934885
100 s peoria st,41.88038532980247,-87.64969386016932
3200 s lituancia,41.836291658895504,-87.6486973337756
700  solidarity dr,41.8665164346044,-87.61254569277905
1500 w 18th st,41.85784948600596,-87.6639015
1400 s sangamon,41.86197488610272,-87.64991777095757
7800 s emerald,41.752322245628704,-87.64288683767073
1000 w washington bv,41.88306651154119,-87.65268227699232
6400 s maplewood ave,41.777233826533546,-87.68730080102699
1200 w pratt ave,42.00561333880383,-87.66099191385705
7700 s komensky,41.752473322499135,-87.72300580422409
1 e 14th st,41.86398254897827,-87.62565451989374
1100 n hermitage,41.90230674271453,-87.67116886262902
500 n halsted st,41.89124044517585,-87.64766076598795
100 s dearborn,41.88066864027351,-87.62943935972649
5900 w bryn mawr,41.98298830985385,-87.77568243619857
1500 s indiana,41.86196389203074,-87.62253783767072
1500 n lasalle blvd,41.91122015762901,-87.63318904731533
6500 s western,41.775406910352594,-87.68357778660027
4100 w 49th st,41.80424743379436,-87.72600285737008
2400 w moffat,41.91492965944446,-87.68739290120578
400 e ontario st,41.893529361466896,-87.61764633100273
2200 n stockton,41.92202250000001,-87.63573935930941
7400 s kenwood,41.760395884817356,-87.59208882656222
300 w illinois st,41.8908280875004,-87.6356244341818
9400 s wentworth,41.72342063869903,-87.62873736130098
2900 n clark st,41.935055135697546,-87.64673656832446
1400 w edgewater,41.98637647489746,-87.66531402844942
200 e 47th,41.809352467684114,-87.62084141909516
3200 w armitage av,41.91742948600597,-87.70723199999998
3600 n magnolia,41.947407,-87.6604199392347
900 w belmont av,41.93992745325738,-87.65180044463038
5200 w washington,41.882390453257386,-87.75537299999998
1200 w carmen,41.974672866735894,-87.6598878667359
7600 s saginaw,41.75718749837058,-87.56005270744787
4600 s halsted,41.81005780099832,-87.64560835772333
1700 s michigan ave,41.85892741326677,-87.62397789984966
2300 w madison,41.88122248600598,-87.68422319608747
1400 e 53rd st,41.799542529863054,-87.59169220038666
3900 w lexington,41.87172961888678,-87.72296083889078
1600 e 00 pl,41.88425000000007,-87.63244999999996
3100 w schubert,41.93029271808245,-87.70497888145624
4700 s bishop,41.80856963955196,-87.66135786044802
1200 s wabash av,41.86725305245543,-87.62586941427637
6400 s calumet,41.778854399767866,-87.61730910803075
800 w lill,41.928200496537535,-87.64911402844942
13000 s ellis,41.659369206709535,-87.59776443217498
1300 w 18th st,41.8579768620453,-87.65893101385241
1400 w 73rd pl,41.760461460470744,-87.65901402844942
700 n may,41.89517279248397,-87.65571704513098
3200 w 60th st,41.78449305908788,-87.70337171149829
3000 w montrose av,41.96125745325739,-87.7036322514571
1800 w chicago,41.89602748600598,-87.67230227699233
1400 w belmont ave,41.93974452986307,-87.66403102553522
6100 s evans ave,41.78385682070518,-87.60736873163471
100 e superior,41.89579734972082,-87.62537731343288
3200 w warren,41.88195387651092,-87.70622061679786
1100 w thorndale av,41.99004053318128,-87.65859094463038
7000 s loomis boulevard,41.76665071717929,-87.65903779381365
1 w chestnut st,41.89793689978581,-87.62832790710337
3000 w 60th st,41.784572345061655,-87.69847281694506
200 w jackson boulevard,41.87814147879261,-87.63409252553522
1800 n rockwell,41.914001131885954,-87.69226057240273
1 s paulina,41.88134544791709,-87.66922886391174
5700 n central park,41.98479450622737,-87.7187526783951
300 w jackson,41.878182069363106,-87.63528336911536
3600 w 60th st,41.78429146826103,-87.71330525007211
6200 s troy st,41.78067229808414,-87.702006801027
4500 n lincoln,41.963445975013045,-87.68520789788776
200 n wabash,41.88581625328071,-87.62633693048842
1400 n kildare,41.9063127171793,-87.73379990316789
1800 e 53rd st,41.79974924611341,-87.58196436917011
200 w 19th st,41.85669949042944,-87.63256492560456
1800 s wood st,41.857672543008725,-87.67111725106709
5800 s michigan ave,41.789033968636396,-87.62235729770876
500 w normal pkwy,41.77146267450697,-87.63722645356171
3700 s wood st,41.826701724392656,-87.6703503593108
1100 w drummond,41.92989674797732,-87.6562438520878
2100 w maypole,41.88402475799099,-87.67922875799098
600 w 46th,41.80989051875455,-87.64085227990654
4800 n kedzie av,41.96850460647839,-87.7085330818833
4600 n racine av,41.965445205434115,-87.65963999953347
1800 w 34th st,41.83234436539119,-87.67053240678909
4500 s california,41.81178482653357,-87.6943578593108
300 w kinzie st,41.8891305004327,-87.63576358673323
2300 n clark,41.923908314184295,-87.63947118598858
5400 w george,41.93320246378898,-87.7617445284494
1400 w bryn mawr,41.983559453257385,-87.66514286081134
100 s morgan st,41.87999582653356,-87.65198689595451
300 s canal,41.87798822343732,-87.63961091890422
2400 n stockton dr,41.92567238400434,-87.63610107600653
2100 n bingham,41.91879993031922,-87.6924252700674
8900 s marshfield,41.73152848279339,-87.66420519201958
4300 w cullerton,41.854351493219326,-87.73230497307979
800 w 55th st,41.79334611119991,-87.71307397760452
6200 n francisco,41.993984485902274,-87.70199822392998
2000 w 00 st,41.85512899417162,-87.62717837431444
5700 w grand,41.91928323454889,-87.76851626949049
5400 s kildare,41.79484780099833,-87.73062980824034
7300 s kedzie ave,41.75752137564115,-87.706057141439
1 w monroe,41.88067499286406,-87.627828463425
1500 n washtenaw,41.90853516180968,-87.69453688484602
3 w terminal 3j,38.37118968230675,-88.05839477102455
1900 w 23rd st,41.850479782820905,-87.67339406929285
2300 s california,41.84995399417162,-87.69544032656219
2900 w addison,41.94667948600596,-87.70067999999998
4100 s western ave,41.819147580904854,-87.68475033767072
7500 s hamilton,41.75693611235289,-87.67764668352946
7000 s morgan,41.76675824562872,-87.64932934488407
700 w 56th st,41.79253848089359,-87.64519178565372
3200 w fullerton ave,41.92479324371264,-87.70763881488459
3000 e 92nd st,41.72831652758739,-87.5511144045643
2400 w walton st,41.89854933586796,-87.68699266804344
5800 w catalpa,41.981181014732606,-87.77330920318502
1700 w north av,41.910606511541204,-87.67044377699231
4000 n marmora,41.95313249262093,-87.77438169212897
5100 s kedzie,41.80062482653353,-87.70379033709379
1500 w 21st,41.85426172239525,-87.66368775
4300 w 18th,41.856939511541185,-87.73240486372553
5800 w school,41.94036148600597,-87.7715725284494
5600 w belmont av,41.938596511541185,-87.76677094463038
2500 n lyndale,41.92254354774165,-87.68939102471678
2500 n austin,41.92577882653356,-87.77581041038124
500 n dearborn st,41.89112105245542,-87.62966735209743
600 n state,41.89274096863639,-87.62814890042658
6300 s morgan,41.77965119158525,-87.64968789229502
300 w superior st,41.895592478792615,-87.63600127990652
5700 s claremont,41.790153611979896,-87.68260479229454
4000 n meade ave,41.953060086027186,-87.77926008284572
7000 w wolfram,41.93180464478933,-87.80110345455387
4500 n sheridan road,41.963732696087476,-87.6547874725602
2400 n orchard,41.92551170775623,-87.64637898468305
1300 e 55th st,41.79517665189048,-87.59484434810949
1 e van buren st,41.876871275547344,-87.62756181663593
2000 s state st,41.85512899417162,-87.62717837431444
1800 w race,41.89166491215584,-87.67211060536378
400 w deming place,41.92963866224237,-87.63948143978294
10000 w ohare e lot,41.96637000000004,-87.84857999999996
400 e solidarity dr,41.86615367030538,-87.61420686026175
4000 n kedzie av,41.95398935898796,-87.70809935898797
700 n ridgeway,41.89385423397195,-87.71996669499094
1400 w taylor,41.869372493219316,-87.6618535284494
2400 n clark,41.92556629301182,-87.64055407104897
500 w roscoe,41.94334745325739,-87.64215163780369
3400 w 60th pl,41.783444453257374,-87.70828436081135
1100 n dearborn st,41.90207346572221,-87.62996883045734
1 n ada,41.88160408273919,-87.66049789271607
10000 s lowe,41.71229907799064,-87.63937024274318
3200 w barry,41.93758325149841,-87.70762888534969
6200 w 63rd pl,41.77687152986305,-87.77650436081134
5600 w wabansia,41.911258790609324,-87.76562879060933
5200 n delphia,41.97417300000001,-87.8415784287031
3500 w pierce,41.90911348600597,-87.71448094463038
8000 s southshore dr,41.75009509696504,-87.54806879544078
1500 s harding ave,41.8605554074384,-87.723840801027
600 e 95th st,41.7220004787926,-87.60913102553522
1800 n orchard,41.91391995109596,-87.64603224865076
800 e 80th,41.74952118472071,-87.60512855050915
6000 n oakley,41.99060916312143,-87.6872925403964
8700 s exchange,41.73720271717932,-87.55281730492213
800 n state st,41.896910451295476,-87.62825986984238
2800 n campbell ave,41.932411994171616,-87.69039091369946
2900 w diversey,41.93209948600597,-87.70026344892953
2100 w estes,42.01120647879261,-87.68420383389116
800 n wabash av,41.896765472678304,-87.6268897124094
1400 w hirsch,41.9066195315661,-87.68964655877183
1600 n leavitt,41.91042825055477,-87.68240995645887
11200 s langley,41.69091983411661,-87.60599702490595
1200 w 97th st,41.71818970770758,-87.65292239635534
4100 w madison,41.880712533758214,-87.72832277699231
4600 s harding,41.809561491257426,-87.72246830102699
2900 n broadway,41.93489881853553,-87.64429987708544
1300 s wabash,41.86558699417162,-87.6258088815278
500 w wrightwood,41.93070558275762,-87.64153081164154
6500 s harvard,41.776407220093496,-87.63338030824033
4400 s california,41.81359340743839,-87.69441080102699
4500 s fairfield,41.81177582653356,-87.693137301027
2 n canal,41.882220548586616,-87.63977409590048
8400 s escanaba,41.74266583236195,-87.55395829381365
1000 e 80th street,41.74958259762867,-87.60019490237131
3300 w hollywood,41.98492278275377,-87.7114319479753
200 w montrose harbor dr,41.96368503295729,-87.63818972786105
400 e chicago av,41.8969384751138,-87.61717053359224
2900 n mildred,41.93474346572219,-87.6515378487792
4900 n california,41.97079126407475,-87.69881244203894
1000 n sacramento,41.899303607119855,-87.70176958256485
6500 w 64th st,41.7758124532574,-87.78380327699232
400 n lasalle,41.88962713627447,-87.63257688152781
1500 n cleveland,41.90933705245544,-87.64098943591647
100 e 18th st,41.85795172680547,-87.62384677319453
1400 w carroll ave,41.88747447879261,-87.6629517799065
2000 w granville,41.99430984242996,-87.67999491321304
100 n lacrosse,41.88317521411985,-87.74661246135983
800 w newport,41.9445666598664,-87.64947147009134
2500 s dearborn,41.846102664723865,-87.62816789927273
4200 s ellis ave,41.81786907799064,-87.60188988874117
1 e 107th st,41.6998034612891,-87.6232349612891
2300 w rosemont,41.99601132540754,-87.68745995198181
1900 n st louis,41.915576330087475,-87.71353187845426
5300 w grand,41.91746921622702,-87.75866887593054
3900 n albany ave,41.95229316180968,-87.70556091038124
300 w divison st,41.90382550822297,-87.6362215284494
7000 n clark st,42.00939476741304,-87.67409929949778
2300 n monticello av,41.922898910352586,-87.71818040316789
8700 s manistee,41.73715766472387,-87.55698731213549
2100 w fulton,41.88676648600597,-87.67948461226842
1500 e 90h st,41.88085038026897,-87.6278138903051
2900 w 44th st,41.81376054449761,-87.69690127459347
5300 n kedzie,41.977736413266776,-87.70875846145171
2700 w north av,41.91026952986305,-87.69472127699233
3500 n clark st,41.945708138207685,-87.65535951820627
5100 n clark st,41.97471981043339,-87.66828628368607
1400 w warner,41.9570895004327,-87.66452186081135
6100 n kedzie,41.99258306691103,-87.70925680075592
600 w oakdale av,41.93560352559519,-87.64434061199822
2800 n christiana,41.932054130352114,-87.71113004078029
6000 s kildare,41.7839037171793,-87.7302793265622
2600 w montgomery,41.818638529049146,-87.68974180059948
1 e harrison st,41.874287632948366,-87.62752191701857
2200 w birchwood,42.01751965213271,-87.68759021069704
2100 w cornelia,41.945070690852226,-87.68098044188129
5400 s hermitage,41.795666329447755,-87.6683098265622
6000 n hermitage,41.991409658198585,-87.67336103142273
8200 s paulina,41.7446624074384,-87.66577730102699
1500 e 67th st,41.773331460470736,-87.58860316763806
4100 w belden,41.9226786515716,-87.72924292680682
5300 s blackstone av,41.79919500000001,-87.59048734488407
5600 s fairfield,41.79174165889549,-87.69256677549177
2100 n kilpatrick,41.918844359337285,-87.74381135933727
1500 w 17th st,41.858777460470755,-87.66392441909515
1600 n milwaukee,41.910719941427736,-87.6780461096427
600 w diversey av,41.93284451543634,-87.64381197016561
4300 n monticello,41.95937599417161,-87.71923993591646
1300 n paulina st,41.90567640707828,-87.67006180311449
2700 w ogden sd,41.862330526688396,-87.69339373141729
2800 w 65th st,41.77559030868847,-87.69339232936909
2900 s normal ave,41.84164699417161,-87.63909035209744
1000 n dearborn st,41.900635765344894,-87.62994042933609
1800 s canalport,41.857426212865406,-87.64052919570221
1200 w gunnison st,41.97029706942881,-87.6597635814489
4400 n clarendon,41.961878715565575,-87.64994487764099
600 s st louis,41.8735474163871,-87.71330358673643
8300 s wood,41.74295856244356,-87.6681562732025
700 w 97th st,41.717919402364004,-87.64077268728414
5300 s dorchester av,41.799257329447755,-87.59180986984238
6500 s oakley,41.77544396863641,-87.6810198593108
1500 w augusta boulevard,41.899776442148884,-87.66506138926077
11700 s wallace,41.68182134311991,-87.63727704990767
1500 n dearborn,41.909588161809694,-87.63018041427637
6700 n greenview,42.00363139642758,-87.66815928389616
2300 w sunnyside,41.963172504327844,-87.68650363780367
1300 w 79th st,41.75054559877345,-87.65544159877344
800 e 79th st,41.7513665925961,-87.60515599013618
7400 s yates,41.76060199417162,-87.56643882656219
2900 w lawrence,41.96853548658289,-87.7023135
4900 w parker ave,41.93060345325739,-87.74923427699233
900 w keystone,41.897312413266775,-87.72740841038124
5500 s laflin,41.793637620317995,-87.66218933127209
5700 s kedzie,41.78974488481737,-87.70349082656222
1200 s wabash,41.86725305245543,-87.62586941427637
5200 s lake park,41.80076900499166,-87.587496430665
1 s jefferson,41.881786869192794,-87.64259295872822
3000 w grace,41.950381837546296,-87.70306083754629
4600 s springfield,41.809597878989,-87.72124880102699
6600 s troy,41.7734415134574,-87.7018162225474
5300 s lake park av,41.79955602417892,-87.58779982988042
6600 s ellis,41.774954639216105,-87.60098136078388
300 e randolph,41.88452347215618,-87.61982255398462
1 n lorel,41.88038831119713,-87.75866460064539
1000 s laflin st,41.86925540094261,-87.66414660548047
3100 n kilpatrick,41.937219,-87.74440941038124
2800 w lyndale st,41.92247280405352,-87.69743130405351
200 n clark,41.885894105318386,-87.63102909888808
1200 n spaulding,41.9028407079664,-87.70927998490559
2400 s wentworth av,41.84903498834325,-87.63195778991846
1000 w montrose,41.961698531738975,-87.65846300138494
1800 w oakdale,41.93514481925493,-87.67424025
1500 n milwaukee av,41.908956300528146,-87.67534611184618
4100 s michigan ave,41.82007049900473,-87.62317420683857
1300 w 48th st,41.806939665910136,-87.65769166591015
500 w belden,41.92375148932421,-87.64172099999998
500 w hawthorne place,41.944785231230675,-87.64173921899695
8200 s marshfield,41.744726245628726,-87.66454685209743
3700 s western ave,41.8263380158905,-87.68497889653248
5400 n oakview,41.97557178425482,-87.84399935877256
1900 w division,41.90324150432782,-87.67498117055227
3700 n clifton,41.94902842990903,-87.65753925266138
3500 w north ave,41.91005052264968,-87.71420194463039
10000 w ohare,41.96637000000004,-87.84857999999996
1600 e 50th pl,41.80348432895354,-87.58638501589779
200 s canal,41.87926326761893,-87.63964396850433
7500 s union,41.757785077990654,-87.64179829381365
5500 s sayre,41.79200745786781,-87.79648613160387
2400 n lincoln av,41.92575897279135,-87.64926048892015
2100 n lincoln ave,41.92009318918681,-87.64141576127474
1800 s ashland av,41.857714485408366,-87.66623152982037
700 w scott st,41.9050967222376,-87.64558788343412
7300 s campbell,41.76086282653355,-87.6856292682784
4000 w lawrence,41.968301433038825,-87.72812977732184
3000 n pulaski rd,41.93561680099833,-87.7271003776327
5400 s aberdeen,41.795864161809675,-87.65252735209744
1500 w 81st,41.746809436144055,-87.66100472208782
400 n may,41.889010500000026,-87.65580035964031
3000 n seminary,41.93630208617607,-87.65645058300676
2800 s troy,41.840843639876944,-87.70374786012306
6300 s greenwood,41.78024130391253,-87.59920083767072
7900 s evans,41.751194638976976,-87.60648936102301
2300 w leland av,41.96663453231589,-87.688161
900 w 82nd st,41.74521521071158,-87.64639434888106
400 n new st,41.889547472744496,-87.61869071248009
4700 s winchester ave,41.80845142653647,-87.67352913290254
5700 s columbia,42.0043322217643,-87.70740015415586
1 e huron st,41.894837466818736,-87.62795966472387
1200 n dearborn parkway,41.90414396863639,-87.63003836320593
1600 n division st,41.5022996364853,-87.66466086351471
1300 n milwaukee av,41.90532498138968,-87.66957885388643
1400 w 71st pl,41.76407751154119,-87.65912202844942
7400 s stewart,41.75966582653356,-87.63455779381363
7400 n campbell,42.015882358364244,-87.69262835836426
1000 n ashland av,41.89976046928367,-87.66746360775274
1800 w cermak road,41.852259511541206,-87.6710925
400 n clark st,41.88935663336028,-87.63108935209743
3100 n damen,41.93778935915034,-87.67839035915031
5100 s maplewood,41.80101742646215,-87.68796513297377
500 w madison st,41.8818834865829,-87.64046019317327
6200 s artesian,41.780984639268645,-87.68493786073134
1100 w 57th,41.79062146967885,-87.65244129182285
900 n lawndale ave,41.89732348844514,-87.7188516971844
1 w chicago,41.89665652510252,-87.62836088773155
1200 w jarvis,42.01616163745163,-87.66296265870001
3200 n halsted st,41.9401868731606,-87.64929021331281
1400 w 62nd st,41.78138646047075,-87.6596216960875
300 e supeior,41.89587488198732,-87.61923625967745
7000 s racine,41.76670349125743,-87.6542102682784
7200 s coles,41.76494025754529,-87.56343506290008
4500 n lincoln av,41.963445975013045,-87.68520789788776
100 s columbus dr,41.881350359716755,-87.62093885971676
900 w van buren,41.87666346768411,-87.64991036081135
200 w randolph,41.884481522649686,-87.6342015
1300 n california blvd,41.904783,-87.69698885948219
3100 w 40th pl,41.820042427202026,-87.70208090022503
800 n dearborn st,41.89682713627445,-87.62979793591646
400 n kingsbury st,41.88911735434915,-87.63806012968583
1300 w randolph,41.88428153318127,-87.6589742514571
1300 w 98th pl,41.715048495271795,-87.65528059236267
2400 n albany ave,41.924789715845925,-87.70466487795873
1800 s damen,41.8576089991445,-87.6760531923963
8400 s euclid ave,41.742369387731536,-87.57704779381363
1000 s canal,41.86968762108121,-87.63934733053568
6500 s lowe,41.77608674564282,-87.64082693149544
9200 s yates av,41.727923245628716,-87.5657897682784
2500 s spaulding av,41.84616554954125,-87.70755882656219
5600 s marshfield,41.79206582653356,-87.66581083377558
6300 s california,41.77905550483101,-87.69347112725643
8000 s cottage grove,41.749216658895506,-87.60522874274321
1400 w morse,42.00792446436589,-87.66603291771018
3700 e 106th st,41.702760511541186,-87.53389200000002
2300 w 22nd pl,41.85122760897213,-87.68324830053653
1 w hubbard st,41.88999079071561,-87.62810831669151
700 s kedzie ave,41.872642459893825,-87.70594822052618
2100 w balmoral,41.97970274161879,-87.6820334747869
1200 w north shore ave,42.00358990153148,-87.66092290153149
1 w division,41.903916539529256,-87.62889150000002
600 e 90th,41.731109453257375,-87.60937091909516
6400 n western av,41.99779101620079,-87.6899206836389
800 n mozart st,41.89573141501847,-87.69802929551906
2200 w 65th st,41.7757108275459,-87.67756689543509
1900 w chicago av,41.89604766180336,-87.67468935489912
1600 s halsted st,41.859637407438406,-87.6467208593108
11200 s halsted st,41.69036624562872,-87.64240977549177
8700 s clyde,41.73702711911317,-87.57332731852392
500 n avers,41.889944292024964,-87.72230241625229
8500 s cottage grove,41.74021291586722,-87.60498460859556
2200 w 24th st,41.848554500407076,-87.68070589724545
1 e cedar,41.902282027909905,-87.6282921091268
6400 n washtenaw,41.99765508563103,-87.69728358241724
9400 s hamilton,41.72270223980033,-87.67609924274319
6200 s fairfield,41.780825884817375,-87.69224885209744
200 s damen,41.87866025099557,-87.67663845143282
6500 n damen,41.999736358529674,-87.68024885852967
400 n avers,41.888251026920216,-87.7222398593108
100 w 87th,41.736359950132496,-87.62674684366378
2500 n cannon dr,41.927187414854394,-87.63451806651037
1300 s michigan,41.865641748542906,-87.62413892538488
11600 s artesian,41.68264050326605,-87.68214221393455
2900 n lamon,41.93340635919507,-87.7492113591951
5200 n spaulding,41.97579417241817,-87.71117049966665
2600 w 100 st,41.711868101987356,-87.68755758457411
1900 w augusta blvd,41.8996656157,-87.67478390708484
1900 w harrison,41.8741500646436,-87.67410486418837
7300 s halsted,41.761393575076454,-87.64434881934885
400 n orleans,41.88936516180968,-87.63698738095087
2400 w jarvis,42.015989542584364,-87.6903236653803
6200 s sacramento,41.78072624562873,-87.6983473265622
5000 n washtenaw,41.972526000000016,-87.69641096087477
1800 n damen,41.91438797056964,-87.67757841759462
6200 s halsted st,41.781357136274465,-87.64486835209743
3400 w 116th pl,41.68146748600597,-87.70547177699233
2300 s lawndale,41.849675413266795,-87.71739837763266
600 w randolph st,41.884456493219325,-87.64315216763805
1600 n milwaukee ave,41.910719941427736,-87.6780461096427
2800 n burling st,41.9327843111157,-87.64770139671258
5500 w edmunds,41.971401803222825,-87.76545893566806
1100 w madison st,41.881664460470745,-87.65454217055225
3900 n lamon av,41.951595359011186,-87.74986835901119
1100 n state st,41.902075173466436,-87.62839988816424
7300 w addison st,41.945230486005954,-87.80961119608747
200 w hobbie,41.90146000861153,-87.64303186344566
2800 n cambridge av,41.93288301681904,-87.64274268428659
2100 n keystone,41.91903151598812,-87.72786967020504
2700 s sacramento,41.84263780099835,-87.70010937763266
4000 s indiana,41.82195263968747,-87.6216183603125
6100 n claremont,41.992406968636395,-87.68853741038124
1300 n monitor,41.90390249772457,-87.77182118811031
4200 n long,41.95693060658432,-87.76224058199585
6100 s morgan,41.78323345140088,-87.64976915886038
6600 s rockwell,41.77355371717931,-87.68842677549179
2600 w 24th st,41.848364460470755,-87.69061294463039
3400 s aberdeen,41.83258416180968,-87.65346988484602
6300 s western,41.779183314177644,-87.68370801828499
1000 n keystone,41.899120994171625,-87.72743885209744
500 e 32nd st,41.836997522649696,-87.61399127699232
600 n franklin st,41.89421663336026,-87.63566834098894
2100 n halsted st,41.920127633360266,-87.64861791038125
1700 w bissell,41.91280172854761,-87.65068926340231
3400 n keating,41.94253980723735,-87.74534288789161
500 s kilbourn,41.87412564020896,-87.73774985979105
7900 s talman,41.74990500738897,-87.68901665993452
6600 s seeley,41.77374271717929,-87.67501835209744
1800 n pulaski,41.913866221478465,-87.72647686710106
100 e oak st,41.9008764857764,-87.62569354343452
1100 w bryn mawr,41.98368447879261,-87.65823094463038
8000 w willow,41.913778136450375,-87.67876948962429
700 s la salle st,41.873245878989,-87.63170782266708
400 n state st,41.88951900000001,-87.6280608953776
2100 w mclean,41.91852944323049,-87.68019311378734
1200 w 16th st,41.85977251384888,-87.65715252123604
3100 w irving park rd,41.95395447157925,-87.70578330391251
1900 n seminary,41.916234359366605,-87.65536835936659
3500 w montrose ave,41.96113047879261,-87.71587368206478
3100 n seminary av,41.938094228432014,-87.6565394775693
1800 s throop,41.85778320843673,-87.65887923552981
200 s halsted,41.87896297446478,-87.64730090316792
5500 n artesian,41.9814627485429,-87.6906689392347
5000 n milwaukee ave,41.971513972260155,-87.7640712273313
3400 n southport av,41.943555031363616,-87.66395841038124
1700 n mason,41.91122565889549,-87.77403890316789
5600 s king dr,41.792762305297494,-87.6159667793869
400 w wellington,41.93662445325739,-87.63983002553522
100 e 33rd blvd,41.8347776023796,-87.62326722355873
1600 n hudson,41.91114779779353,-87.63984939767096
2300 w 66th st,41.77385680684744,-87.68100941279059
3700 n oconto,41.946875549541225,-87.80827940316792
3800 w 57th st,41.78966548600596,-87.71832386081135
400 e 79th st,41.751176888630816,-87.6148752294744
2000 w foster,41.97610386845663,-87.67948086845661
700 w grace,41.95155698309179,-87.64814137275656
1000 n hudson,41.90050235952221,-87.64009985952221
1100 w 115th,41.68502549321932,-87.64961369608747
3900 w belmont ave,41.93922182414778,-87.72392282414779
3500 n lyndale,41.921976519061,-87.71373155042616
5700 w dickens ave,41.91810547352549,-87.76826350423426
3000 n lincoln av,41.93633372133424,-87.66402794936226
1200 n parkside,41.90219255188489,-87.76691163587746
1900 s state,41.85581405245543,-87.62718988210472
1200 w arthur,42.000564743718755,-87.66081152172531
2400 n milwaukee av,41.92476725003692,-87.70053724984463
3100 n drake,41.93752399417161,-87.71615938484602
1100 w leland av,41.96730907630496,-87.65764406822613
3200 n mobile,41.938390130295616,-87.78353954071926
3600 w 27th st,41.84262412788317,-87.71483328133594
2700 w bryn mawr,41.983161463788974,-87.6968505
600 n franklin,41.89421663336026,-87.63566834098894
2500 s trumbull,41.84611124562872,-87.71120841038125
2900 n lincoln av,41.934278300958425,-87.66125613997481
1500 w adams street,41.87895552264969,-87.66469383527613
10400 s avenue l,41.706252000000006,-87.53649731934885
5400 w bloomingdale,41.91314632806931,-87.76075312342861
1300 w george st,41.934371400686345,-87.66123722794866
1300 e 72nd pl,41.763317323965545,-87.59325660795973
2900 w thomas,41.90116020815484,-87.69938934136162
1800 w 74th st,41.759482040318076,-87.66860017102913
1100 e 62nd st,41.78237006027784,-87.59941679121694
100 e lake shore dr,41.90086046436589,-87.6238424348782
8900 s houston,41.7335847171793,-87.54996077938691
6700 s union,41.77244208961464,-87.64183528742515
5400 s hyde park blvd,41.797638220093496,-87.58402735599256
100 w hubbard st,41.89004549321934,-87.63179450291418
1 e 00 th st,41.88425000000007,-87.63244999999996
4700 w van buren,41.875085460470736,-87.74279044463039
200 s wells,41.87933740786593,-87.63382312165119
1200 w 18th st,41.85802208181805,-87.65649181114357
2200 w devon,41.997847493219325,-87.68551091909515
4600 s whipple,41.809867239800326,-87.70041927549175
1000 e 52nd st,41.800937501979625,-87.60124420136059
7100 s maplewood,41.7645855420758,-87.68695725196478
6200 s michigan,41.78154271736174,-87.62217047635441
200 w superior st,41.8956174893242,-87.63439066763806
200 n lavergne,41.884445105332226,-87.75038259890255
3000 s harding ave,41.838613658895504,-87.7232098265622
2200 n central,41.92058599417163,-87.76587787373751
700 e solidarity dr,41.8665164346044,-87.61254569277905
2700 w armitage,41.917547460470736,-87.69494085498297
7600 s springfield,41.75490881313255,-87.72051195478485
1 w 87th st,41.73622559380404,-87.6255607415466
1500 n kingsbury st,41.90816912333453,-87.65195213103489
3200 e 69th st,41.769459126269524,-87.60811620615515
7700 s eberhart,41.75467213627445,-87.6126178265622
1600 w north ave,41.91065451875455,-87.66787100291418
2000 e hayes,41.780116474799854,-87.57836044711244
1200 w 47th st,41.80880266813132,-87.65532916813132
600 w harrison,41.87443926719629,-87.64250922053623
7600 s east end,41.75681396863641,-87.5834803265622
4900 w jackson,41.87678548600596,-87.74752436081135
800 n kolin,41.89527886390572,-87.73474274014899
3100 n halsted st,41.93818703194804,-87.64926915869384
2700 n st louis,41.93024413627447,-87.7147299614517
1 e 11th st,41.869165259603726,-87.62732525960371
1700 w 82nd st,41.74492000795037,-87.66583266837709
2600 n lavergne,41.9278792503864,-87.75140845628393
1500 n kingsbury,41.90816912333453,-87.65195213103489
2600 n kilpatrick,41.928626329961055,-87.74408237832327
6100 s dorchester,41.78407357507646,-87.59146678991848
3400 n lakewood,41.943510942554546,-87.66155372016799
700 e 130th pl,41.658770035361684,-87.60330218816338
2100 n kildare,41.91913724562872,-87.73397841038124
4900 n troy,41.970428549541225,-87.70731740316789
1300 s halsted,41.865426000000014,-87.64688893591646
2500 w cermak,41.85206485081355,-87.6882205714369
300 e ontario st,41.89343345325739,-87.62024122162269
2700 w cortez,41.90023948600597,-87.69451066763806
5800 n artesian,41.98690682653356,-87.69080991038125
2100 w crystal,41.90414767136211,-87.6798013647349
2800 n lake shore dr,41.933413227566646,-87.63622197068428
1200 s state st,41.86730191239515,-87.62756560254508
300 w grand av,41.891573460470745,-87.63582136372555
300 n central,41.88592724562872,-87.76509889595451
600 w van buren,41.87675452596791,-87.64286344463038
1800 w north ave,41.91056947489745,-87.67290144754458
2600 n lakeview,41.929900763806366,-87.63929822110309
6400 n minnetonka,41.99828198162549,-87.76862357652969
3800 n pontiac,41.94856754954125,-87.83536791038124
2400 n cannon,41.92572046784568,-87.6336459860665
1000 s desplaines,41.869642128923466,-87.64378382602085
1 w maple st,41.90180007248037,-87.62845161479784
5800 w fullerton,41.9239355115412,-87.77102416763806
4000 w roosevelt,41.86617448600597,-87.7256235
3400 w 55th st,41.79345348990112,-87.70872966180971
8000 s wolcott,41.74827241326679,-87.67068935209744
4100 w belmont ave,41.93909346047074,-87.72979427699232
9000 s elizabeth,41.73037610053362,-87.65443529949448
1000 s wabash av,41.869711256737226,-87.62589834156586
7 s clark,41.88187221255478,-87.63081971703684
6300 s fairfield,41.779066582631906,-87.69223579310017
1 w ontario,41.893202483535326,-87.62818794753444
1 e 9th st,41.87047025804292,-87.6273252580429
1300 w 92,41.72683957060895,-87.65556307060893
100 s clinton st,41.88050445871985,-87.64117313081495
2000 n leamington,41.91693854092592,-87.75466763048695
5300 s kimbark,41.79941560194043,-87.59509431241459
4500 s talman,41.811839245628704,-87.6907093337756
7700 s cottage grove av,41.75485645925532,-87.60534516747126
3800 w fulton,41.88693092821243,-87.72104357882574
500 w monroe,41.8805914899011,-87.64042419317329
8300 s paulina,41.74297649823505,-87.66572620757809
100 e erie,41.894212770187934,-87.62531372981206
5500 w north ave,41.90942450432782,-87.76318108673323
7600 n bosworth,42.019632,-87.66951802694885
1 s sangamon st,41.88165085053108,-87.65078844412525
1800 w chicago av,41.89602748600598,-87.67230227699233
800 w washington bv,41.88317046768411,-87.64769266763805
2500 w lawrence av,41.96866085950814,-87.69143285950813
2800 w fitch,42.01117251154118,-87.69987411226845
300 w evergreen,41.90674753683296,-87.63659342135252
2700 w thomas,41.901149460470755,-87.69452408381903
1200 n lakewood,41.9958693618785,-87.66291312095197
1600 w north shore ave,42.0035614565756,-87.67088100000002
7600 s kingston,41.756948580904826,-87.56270081934885
1500 w 69th st,41.76861651875456,-87.66167336081135
6100 n broadway st,41.992805156843616,-87.66041854649653
1300 s halsted st,41.865426000000014,-87.64688893591646
2200 n hamlin ave,41.92093917290924,-87.72184000019622
4900 w dakin,41.952540671500934,-87.74991147768
4000 n ravenswood,41.9614965364995,-87.6744559346184
8100 s bishop,41.74668380132313,-87.65975398984409
7100 s wabash,41.76549489691548,-87.62335461326185
5200 s harper av,41.800822575076474,-87.58913981213549
1100 w paterson,41.948352678022864,-87.65749886285946
5500 n winthrop,41.98199354954125,-87.65791893259825
3100 w 25th st,41.84640351875456,-87.70278077699233
1 e cullerton,41.85536024574089,-87.62707232791155
2400 n central ave,41.92404263715175,-87.7660449513088
700 w scott,41.9050967222376,-87.64558788343412
3500 w lawrence ave,41.96839551154118,-87.71626302844942
200 e pearson st,41.89764352596792,-87.62173345224777
5200 n kenmore,41.97659324562872,-87.6563874614517
3500 w lawrence av,41.96839551154118,-87.71626302844942
2200 w erie st,41.89311652596793,-87.68204002553524
1600 s california ave,41.85916610554421,-87.69573630214548
1000 s paulina st,41.86916505953372,-87.66901525449512
1700 w arthur,42.00066489800953,-87.67219989800951
700 w 42nd st,41.817657615617215,-87.64339171605101
9200 s euclid ave,41.727734999999996,-87.57672829381363
5100 n laramie,41.97345403992476,-87.75776362658516
900 n western,41.89766299417161,-87.6869269287031
2800 n clark st,41.93276583798794,-87.64498175218736
6400 s winchester,41.77739624562872,-87.67267835209744
5600 w 60th st,41.783636848031826,-87.76203035653332
700 n lasalle st,41.8950531618097,-87.63270891759458
2800 n mulligan,41.931072918476474,-87.78452074335554
1400 n lotus,41.90592571717932,-87.76205689595452
1400 e 67th pl,41.77242246047076,-87.59089349999998
4100 w 64th st,41.77687733618779,-87.72523430753746
5200 s francisco,41.798986407438406,-87.6964168265622
1300 w 64th street,41.77777648600596,-87.6570925284494
2900 n hamlin,41.93374150007269,-87.72218667279469
1100 n massasoit,41.900398658895476,-87.76922734488407
100 s jefferon,41.880185161809685,-87.64262990316792
900 n springfield ave,41.89739775131288,-87.72369078660027
2300 n california av,41.92297360690048,-87.69744058233174
8000 s rhodes,41.749199245628716,-87.6112678265622
2200 w chase,42.01412170540751,-87.68627854469084
7200 s cottage grove,41.76387888481736,-87.60555881934884
1100 n lasalle,41.90205554954125,-87.63291933767071
1400 w 19th st,41.856132590149606,-87.6613243298577
3200 n lavergne,41.93881985978878,-87.75184366975355
2300 w devon,41.99782244214889,-87.6876521960875
1700 w chicago av,41.89606348600597,-87.67003427699233
2800 n leclaire,41.93150185488053,-87.75401358347649
04000 s king dr,41.82186527699233,-87.61718988874117
1 n elizabeth,41.881611359708046,-87.65870514029194
2700 n lake shore drive w,41.93326378356422,-87.63619169315695
800 w jackson bv,41.87802052044788,-87.64732944680765
3700 w mc lean,41.918194486005966,-87.71942233236194
6100 w henderson,41.9411705115412,-87.77892052553524
1400 w fargo,42.0172249179561,-87.66550841795612
7200 s honore,41.76288866472387,-87.66987035209743
2000 s wolcott,41.85488094663352,-87.67349159396956
3900 s lake park av,41.82489578746739,-87.6038914539736
1300 n clark st,41.905819339770495,-87.63156984023583
3900 w jackson boulevard,41.877126511541206,-87.72326052844942
1 e randolph,41.88441264629704,-87.62784588102355
1 e madison st,41.88198210549551,-87.62772490000103
1000 e 67th st,41.7732621980389,-87.60081645417064
2600 w gunnison,41.9697397801669,-87.69389991481947
3400 s halsted st,41.83249914171137,-87.64620483991492
6200 s racine,41.7813515446211,-87.65459672230983
2300 w taylor st,41.869034474897475,-87.68386319608747
4800 s wood,41.806601968636386,-87.6698373593108
600 n s clair,41.891453161809686,-87.75306838484602
6000 w wabansia,41.91114061141296,-87.77534993791798
2300 n sawyer,41.923007214265105,-87.70909983767072
3900 w shakespeare,41.92003304161991,-87.72426104739455
1300 n moorman,41.904653982302015,-87.67020713052582
1300 w newport st,41.9443544787926,-87.66167285789714
3300 n neva,41.93995471717929,-87.80557940316788
300 s oakley ave,41.87749019861597,-87.68393289761197
2900 s princeton,41.84107631479486,-87.63422601769581
9900 s perry,41.71426124562871,-87.62611880102699
5800 s dorchester,41.78959670846725,-87.5916159212162
2400 n maplewood av,41.9249165933746,-87.69137105271206
10400 s eggleston,41.705131450619724,-87.63436565960966
700 s lytle,41.87315149933901,-87.65842617334019
1000 e 80th st,41.74958259762867,-87.60019490237131
2100 n sheffield,41.92004574271453,-87.65348788484602
1 e hubbard st,41.889992455479174,-87.62795404768566
6800 s state st,41.770885042560096,-87.6252257389196
800 w monroe,41.88055725024047,-87.6474161191087
700 w melrose,41.94109146047075,-87.64700344463041
2100 w shakespeare,41.92082439631336,-87.68030116315056
1500 w taylor st,41.8693294421489,-87.66427380544174
3200 w 66th pl,41.772609511541184,-87.70323086081135
3000 w 39thpl,41.89565753318129,-87.70279402553524
100 w north avenue,41.91119752596792,-87.63223049999998
1200 w touhy,42.012948940722964,-87.66162136327291
4400 w thomas,41.90069645325738,-87.73624302844941
6300 n western ave,41.99608774854293,-87.6898674614517
2000 s michigan,41.855102800998345,-87.62390687431444
500 e 47th st,41.80950637530719,-87.6137686080398
1100 w farwell,42.006909036195005,-87.65871069649721
1700 w grace,41.95065911658253,-87.6714499926087
3000 s drake ave,41.83877599417161,-87.71343740316792
2500 s california av,41.84631000000002,-87.69522888874117
2200 s oakley ave,41.851993250730025,-87.6832489516857
900 s laflin st,41.87028563336028,-87.66416088874115
4600 s martin luther king,41.81069713627445,-87.61690931213549
1800 w 16th st,41.85960687423823,-87.6712105666004
4500 w washington,41.88193947879261,-87.738111
1700 w superior,41.89515052596791,-87.66985100291419
300  randolph,41.88447953318129,-87.6355734970858
5400 n clark st,41.97996774271453,-87.66836094644805
2500 n clark st,41.92788507908717,-87.64189968128538
2700 n mason,41.92945163336026,-87.77471691038124
1 n michigan,41.88216168479264,-87.62412398269794
1300 w morse av,42.00800837868765,-87.66378992856652
2900 n allen,41.93398188307873,-87.71529688117874
1 e adams,41.87940854530789,-87.62763448752175
1400 w taylor st,41.869372493219316,-87.6618535284494
2600 w 35th st,41.8301845199084,-87.69064266333889
1 n wabash,41.88222714516125,-87.62613681164551
2200 w superior st,41.89493151875457,-87.68234186081135
10700 s wabash,41.6997539686364,-87.62215774274318
200 e cullerton,41.855578202762,-87.62218890709362
1200 s pulaski,41.86609764012973,-87.72520835987028
1100 n larrabee,41.90150740758421,-87.6432032289718
1900 w north ave,41.910542474897476,-87.67517483819029
1000 w taylor,41.869587464521004,-87.65119048000506
4700 n spaulding,41.9667461559813,-87.71090688874115
1200 w wilson ave,41.965464381469744,-87.65966428075703
1400 n state st,41.90799558090484,-87.62885090316792
900 e 67th street,41.773234625761425,-87.60325487423857
1400 n sedgwick,41.90765640968439,-87.6385303005118
2600 w jackson,41.87756275025804,-87.69117374999998
100 w north ave,41.91119752596792,-87.63223049999998
1200 w nelson,41.937133821641844,-87.65894282164183
1300 w 78th st,41.752353734162575,-87.65547395051755
1100 w armitage av,41.91814379886269,-87.65581979886268
1 w erie st,41.893985644789424,-87.62820162406788
3900 w lawrence av,41.96833685911871,-87.72568235911871
1000 s jefferson st,41.86966016138451,-87.64229435944506
2000 e 79th st,41.75168138432845,-87.57591926145426
5400 n st louis,41.9796634715506,-87.71610095221727
6300 n oakley av,41.99614154954125,-87.68743041038124
5000 n lincoln av,41.97209522647014,-87.69085123316391
2800 s drake,41.8406039686364,-87.71349687763265
2200 n clark,41.92231486427381,-87.63853042535622
200 w st paul,41.913687348260225,-87.6348826915908
700 n franklin st,41.89481372734157,-87.63570848794916
3700 w grand,41.90368337648653,-87.71997728246288
1700 w 90th pl,41.729347486005956,-87.66547219900167
4000 n drake,41.95384126077393,-87.71664430013601
2900 n racine,41.93449074271453,-87.65880742480795
1 n racine,41.88166535971162,-87.65667564028837
2800 s spaulding,41.84070246572222,-87.70739682656222
800 w weed,41.90993578902373,-87.64830028902371
100 n state st,41.883301754360794,-87.62795144032427
1300 n damen,41.90516932944775,-87.67734790259097
100 n lamon,41.8818519765411,-87.74782318881607
6100 n hoyne,41.99196482653355,-87.68233896145168
300 w 75th st,41.75812948600597,-87.632334
2100 n damen,41.91968629808415,-87.67772084098894
200 n union,41.88574746938632,-87.64543160787008
2100 s china place,41.85485993041158,-87.63291741376058
1500 n kolin,41.90778888481736,-87.73507887763266
9400 s peoria,41.72285532361936,-87.6456997099946
8200 s sangamon,41.74497765889549,-87.64754029381363
1400 n leavitt,41.90708972017461,-87.68232849478527
2200 w ohio,41.89225846959108,-87.68193002788229
6300 n claremont,41.99612354954125,-87.68866094312979
3200 w 30th st,41.839132704322,-87.704950704322
10800 s forest,41.69798071717929,-87.61598824274319
1600 w beach,41.90768440610905,-87.66769212344629
2600 w 47th st,41.808386460470736,-87.68954291909516
10300 s commercial,41.70791524952387,-87.55331827257757
1600 s wabash,41.860061413266784,-87.62567035599257
2000 s wabash,41.85524599417161,-87.62556984156582
2100 w gladys,41.876995749579656,-87.67903074957962
100 s wabash av,41.880720412528476,-87.6261970825768
2100 n sheffield av,41.92004574271453,-87.65348788484602
8700 s burley,41.736483136274465,-87.5458207766456
5200 s ingleside,41.800616413266795,-87.6028978265622
2900 w polk,41.871108444736564,-87.69852150218527
3600 w ainslie,41.97024379574209,-87.71836190117935
1900 n clark,41.91683539410821,-87.63515137526674
7200 s sawyer,41.7624029686364,-87.70400735209743
1900 n washtenaw,41.915720789901215,-87.69477992569925
900 w 68th st,41.770659464068366,-87.64704575085831
1500 w thomas,41.90158950764607,-87.66505400291418
7900 s elizabeth,41.7504026389694,-87.65495886103058
4300 n sheridan road,41.95991658090481,-87.65474095813347
800 n clark st,41.897168298084146,-87.63127982324399
1100 w granville av,41.99462289470123,-87.6584551903641
4600 s drexel,41.81113699417162,-87.60441886710106
3900 w wabansia,41.911816791278135,-87.72402179127813
3000 n lockwood,41.935078063454036,-87.75908210476985
6300 s keeler,41.77855358262679,-87.72768679310512
3000 w madison,41.881041511541184,-87.70154458673322
300 e 54th s,41.796662520666814,-87.61918573121265
1000 w 63rd st,41.77973249321932,-87.6498425568988
900 n rush st,41.89922123690132,-87.62693919294077
1300 n greenview av,41.905231323619375,-87.66513884098894
1100 n pulaski,41.90096649708582,-87.72627988484602
1400 w fillmore,41.86855950764606,-87.66176361226843
6200 w eddy,41.94487296069089,-87.78142018380674
1300 n sedgwick,41.905545675008995,-87.63845393334131
9700 s throop,41.71802871771649,-87.65534943205229
1700 n kimball,41.91200857507647,-87.71178986320592
5700 s wood,41.79027168789339,-87.66940740023428
9100 s ashland,41.728318826533545,-87.66288979381363
7500 s prairie,41.75828579902586,-87.61836401398935
5600 n glenwood,41.98359935869008,-87.66502085869007
1 e adams street,41.87940854530789,-87.62763448752175
2200 w eastwood,41.96595551543633,-87.68520377699232
100 e 120th st,41.676296662678155,-87.62037867304147
5100 w augusta,41.89869361455382,-87.75333590590392
3600 w lawrence av,41.96836948600597,-87.71851252553522
4600 s spaulding,41.809768407438405,-87.7064878265622
1200 n mason,41.90208495120822,-87.77416974876861
5900 s ashland,41.786566994171636,-87.66442684488408
1 w oak st,41.90051140455653,-87.62840044447658
2100 w byron,41.952368468532796,-87.68121108673637
4500 w fullerton ave,41.924344471579225,-87.73927127699233
5500 w west end,41.8842954893242,-87.76352291909515
4600 n sheridan rd,41.965793329447756,-87.65479991427637
300 s wells st,41.878047067556025,-87.63382422092711
5800 w congress,41.8739573439772,-87.75336276992071
6600 s winchester,41.77370599417162,-87.67256929381365
4800 s indiana,41.8072589686364,-87.62119884877922
700 n wabash,41.89493972734032,-87.62683898794788
1900 w taylor st,41.86918347157923,-87.6741107216227
5200 s drexel,41.80023799417162,-87.60397685209743
1 e division,41.90387036755188,-87.62862459857844
2600 n burling,41.92914015043649,-87.64770956759297
5 w van buren,41.87686351944009,-87.62781216003646
1 n leclaire,41.880478929535755,-87.75257673446617
3000 w 53rd pl,41.79634047879261,-87.69892419317327
6800 s wabash,41.770852575076475,-87.62347779770876
100 n dearborn,41.88330213218225,-87.62949907271191
800 w gunnison,41.970107460470736,-87.65039202844942
1800 w 22nd pl,41.85155212497643,-87.67096730520859
1600 n monitor,41.909338327822304,-87.77149285166391
1300 w henderson,41.942613675122026,-87.66155395106554
2300 w taylor,41.869034474897475,-87.68386319608747
4800 s lavergne ave,41.8055939686364,-87.7480273265622
4700 s dorchester,41.80863355401539,-87.5920317668228
1400 s wabash,41.864000011729296,-87.62578472765611
1 e 98th pl,41.71529690815904,-87.62126005097682
600 s plymouth ct,41.874485640213024,-87.62873735978701
5800 s whipple,41.787980381903175,-87.69976932656222
8 e 89th st,41.732765585871945,-87.62377808863218
6000 w warwick,41.94857283537393,-87.77668983537392
600 s columbus,41.874440640213145,-87.62063735978684
8800 s princeton,41.73426913627446,-87.63192732656219
200 w 24th st,41.84922946144045,-87.63201143558605
2800 n seminary,41.932718381903186,-87.65629739927273
3700 w leland,41.966562033189945,-87.72071160619898
9400 s state,41.72349017645725,-87.62385683824753
1400 n latrobe,41.90598854954124,-87.75711890316789
200 n laramie,41.88450580099835,-87.75526888484602
1700 n pulaski,41.911812,-87.72643738484602
6500 w higgins,41.97719572052619,-87.79056189549317
2400 n washtenaw,41.924890430131036,-87.69503325289871
2700 s loomis st,41.84407680862473,-87.6597109285449
3200 n kenmore ave,41.939902086144095,-87.65531208297216
1 s la salle st,41.881911439995065,-87.63234334675549
9300 s greenwood ave,41.72573363872229,-87.59736786127769
8200 s avalon,41.74575266472388,-87.59417780102699
6400 s maplewood,41.777233826533546,-87.68730080102699
100 w grand ave,41.89163347489747,-87.63144236081135
9600 s avenue m,41.721251638670225,-87.53773836132977
2300 w leland,41.96663453231589,-87.688161
1300 e 53rd st,41.79950652986306,-87.59492095946112
1100 n dearborn,41.90207346572221,-87.62996883045734
600 n lawndale,41.89282166472387,-87.71870043259825
5500 s nashville,41.79221560187315,-87.78671781247945
1900 w evergreen,41.90713189745012,-87.6746695338356
3300 n seminary,41.94176550777596,-87.65665267771155
7500 s kenwood,41.75843324562871,-87.59202734098893
11000 s spaulding,41.6932592774473,-87.70345294474848
2400 w greenleaf,42.009591905025246,-87.69088038947031
4700 n sheridan road,41.967298172494225,-87.65483949974869
300 e randolph (ll) st,41.88452347215618,-87.61982255398462
1600 n wells,41.91158696863639,-87.63476941817154
700 n state st,41.89492060716049,-87.62819908260798
2600 w thomas,41.90116648600596,-87.69208427699232
100 w 68th st,41.770952002829404,-87.6280336378303
4700 n lincoln,41.96688329988656,-87.68748554064925
1600 w belmont av,41.93976979532865,-87.66874933010256
1100 s canal st,41.868417961725896,-87.63931794500307
2000 s indiana av,41.85543136405196,-87.62231456795033
800 n cambridge,41.89652140559134,-87.64159429357467
2900 w nelson,41.936674493219336,-87.700383
7600 s michigan ave,41.75632766472387,-87.62151729049542
3700 e 105th st,41.704644378050155,-87.53399432033001
1800 w adams boulevard,41.87890260423902,-87.67175086953459
400 w belmont ave,41.94014094806336,-87.63959617220749
3100 w wilson,41.96476349321933,-87.70619152553522
300 w hubbard st,41.88998249321933,-87.63583494754455
2500 s california blvd,41.84639489948853,-87.69474608959
500 w drummond pl,41.93174031427952,-87.64338038344637
100 w madison st,41.882052586105324,-87.63096289407801
1400 w 105th pl,41.70228706934125,-87.65779100846892
500 n lockwood,41.88895228613009,-87.75787234380985
4000 n broadway,41.95487700054825,-87.65077945617156
9200 s racine,41.72666299417162,-87.6531178265622
3300 w 24th st,41.84816871511481,-87.7076642151148
200 e superior,41.895767522649706,-87.62246158673322
1600 n honore,41.910579214739606,-87.67385291070984
3800 w grenshaw,41.86722067397236,-87.72023377602709
3700 n broadway st,41.94943866388716,-87.64859119943434
7000 s merrill,41.76794265502436,-87.57272936717987
4700 s cottage grove,41.80929397446477,-87.60662735209743
3900 n st louis,41.952095800998336,-87.71534841038124
1700 s laflin st,41.858689521629216,-87.66382722920267
2000 w devon,41.99793952596791,-87.68040244463039
5400 w fullerton,41.924081460470745,-87.76130344463041
2200 w ogden ave,41.846298551300656,-87.7383310132433
5300 n lawler,41.9778989793,-87.7537326307777
3200 n meade ave,41.93845199988736,-87.77868061211845
500 w parking lot e,41.89554000000004,-87.62541999999996
4800 w augusta boulevard,41.89877458771929,-87.74596043152452
10900 s racine,41.69581557461297,-87.65225675518442
3200 s paulina,41.83570097974072,-87.66811465682626
00000 e 16th,41.860223350372856,-87.6240032076628
800 e 48th st,41.80779580410745,-87.6064645011994
4200 s michigan ave,41.81809424562872,-87.62310085599259
9800 s halsted,41.715603000000016,-87.64319030824034
2000 s wentworth,41.85532289073457,-87.63190358035405
6300 w school,41.94020946047075,-87.78375394463038
1800 w 100 st,41.71214544652407,-87.66735445056
5000 w deming,41.9270076652512,-87.7514099239154
5000 w fullerton ave,41.924232511541184,-87.75143002553524
2600 s lawndale,41.84430655353529,-87.71727273040341
2200 n sheffield av,41.92213424562871,-87.6535369287031
1800 w superior,41.89510349321933,-87.67230261226842
5300 s lake park - inner,41.79955602417892,-87.58779982988042
2100 w augusta boulevard,41.8995937478163,-87.67970228131472
1100 w newport,41.94451267736668,-87.6567434533777
700 w 48th st,41.80715443226528,-87.64314436556414
2800 w belden ave,41.92335480511128,-87.69803880511125
100 e walton st,41.90002649321932,-87.62516044463038
2800 n clark,41.93276583798794,-87.64498175218736
1 w hubbard,41.88999079071561,-87.62810831669151
600 n state st,41.89274096863639,-87.62814890042658
7700 s cornell ave,41.754941664723866,-87.58452882656219
6200 s kilpatrick,41.7801409103526,-87.73995080102699
6000 s mozart st,41.78442524562871,-87.69477679381363
700 s dearborn st,41.8733189686364,-87.6291903737375
9300 s cottage grove,41.72563292971272,-87.60462912321479
2200 w cermak road,41.85212548600597,-87.6809117514571
2100 w 79th st,41.7502494676841,-87.6757316960875
6100 s kilbourn,41.7820229686364,-87.73509785209744
200 w 87th,41.736030463788964,-87.63068249999998
4500 s calumet ave,41.8446068,-87.6188379
1400 n milwaukee av,41.90740520731155,-87.67287740065773
100 w hubbard,41.89004549321934,-87.63179450291418
8400 s dante ave,41.74216238773155,-87.58920785209743
1 w 18th st,41.85772448626858,-87.62735086192997
2700 s prairie,41.8902501,-88.2230944477082
1200 w 21st st,41.8540155,-87.67588420000001
200 n stetson - ml av,41.885822282034994,-87.62236192611253
2500 n cannon,41.927187414854394,-87.63451806651037
1200 n stone,41.90405506372901,-87.62585060506748
1 w 95th st,41.72159805113881,-87.62465279670486
400 w erie st,41.893940460470745,-87.63890400000004
8200 s langley,41.74569409692144,-87.6075587954821
1400 n ashland ave,41.90712207799066,-87.66763986652418
1 e oak st,41.900726474032076,-87.62804066472387
6100 n seeley,41.99219105245544,-87.68110948698694
2300 n broadway,41.94423459991825,-87.64536313661625
2200 s troy,41.85171341617737,-87.70407408693035
600 w kemper,41.92466822641729,-87.64397187917973
1 e delaware pl,41.89915247013696,-87.62731183236194
500 w hobbie,41.901587682133886,-87.6422253316519
6600 s greenwood,41.6980891,-87.7086616
1300 w eddy,41.946202486005966,-87.66179430544175
2700 w balmoral,41.97950248600597,-87.69677408381901
100 w schiller,41.907881920260785,-87.63166107490763
7300 n damen,42.01425313266779,-87.68051706010151
800 n hermitage av,41.89713325,-87.62442335495092
1300 w webster,41.92173363289297,-87.66085194229427
6800 s south chicago,41.7708994,-87.62971209999998
3500 n wilton,41.945597245628704,-87.65308792480795
9200 s marquette,41.72810764656957,-87.55817532946905
1000 s racine,41.8699374,-87.62481002476679
1800 w harrison,41.874071527266935,-87.67266011365344
8600 s sacramento,41.736839810194155,-87.69720936116488
3400 w lawrence av,41.968471859280974,-87.713451
12500 s eggleston,41.6669434144034,-87.63316308857046
5700 s ellis,41.7913333294244,-87.60138503369578
4700 s seeley,41.80845027854377,-87.6759534437397
3500 w 59th pl,41.785256460470755,-87.71078291909515
7700 s rhodes,41.75475779070929,-87.61141600560413
3600 n elston,41.94659694864304,-87.70890691431542
5100 n broadway st,41.97482865889549,-87.65984690316792
2500 n milwaukee av,41.92663211366335,-87.7035652667671
3400 w north av,41.910073519331476,-87.711894
500 w roosevelt road,41.8672634643659,-87.63954155398464
3100 n milwaukee,41.9373765,-87.72147770300535
8800 s carpenter,41.734074974849655,-87.64969666971542
6900 s indiana,41.76907082653353,-87.62022977217354
3700 w 26th st,41.84438745657562,-87.7175725284494
2600 n ridgeway,41.92827527140976,-87.72080843569474
8200 s damen,41.74464465889551,-87.6730382682784
3000 w fullerton ave,41.92478246436588,-87.70236155398464
2800 n merrimac,41.931100130360655,-87.78209954078949
6500 s kedzie,41.77505624562872,-87.7030768265622
4800 w nelson,41.93616182047534,-87.74685032047535
3400 n clark,41.94357487889072,-87.65369823989131
6300 w patterson,41.94661551154118,-87.78403358381901
4600 n lincoln,41.96518166527214,-87.6863296392173
5500 w melrose,41.939606803047866,-87.76417275490702
2800 w mildred,41.9327427698525,-87.65149589068086
100 e ohio,41.89258545173626,-87.6253064841062
1500 w wellington,41.93611350764606,-87.66624102844942
4300 s mozart st,41.815358717179286,-87.695679801027
11300 s stewart,41.68868324562871,-87.63262729381363
1600 s springfield,41.85883342704032,-87.72250713241972
5800 s cottage grove,41.789452542325,-87.60616875172501
2700 s california blvd,41.84365698922282,-87.69467383669416
3100 n ashland av,41.93789850000001,-87.66866135915024
3100 n long,41.9368803591566,-87.76159985915659
6700 n lakewood,42.00356029092639,-87.66364041511228
4500 s mozart,41.81175782653353,-87.69558080102699
4100 w 51st st,41.80054451543636,-87.72611327699232
5400 n kedzie,41.979536161809676,-87.70879093591647
800 w jackson,41.87802052044788,-87.64732944680765
2300 w 95th st,41.72105350822297,-87.67999302844942
900 e 104th st,41.705726429373605,-87.60268435677109
1 e cedar st,41.902282027909905,-87.6282921091268
5800 w 59th st,41.78532951875455,-87.76706369608749
700 w 36th st,41.8290341225609,-87.64368825449489
4600 n malden,41.96538353479726,-87.66237848345659
400 n park dr,41.890268047915406,-87.61972065479519
3100 n milwaukee av,41.937411331294044,-87.72122830190506
6600 s maryland,41.7747946588955,-87.60463032656222
700 w aberdeen st,41.894439626552774,-87.65428478905069
2400 e 86th st,41.73908913454029,-87.56597747133125
2200 n seeley,41.92142610497827,-87.67904859853287
6800 n clark,42.00556152178431,-87.67319565309576
3600 n ozanam,41.94522283631734,-87.82172937918554
800 n michigan ave,41.897096518177634,-87.62487729770876
1100 n state,41.902075173466436,-87.62839988816424
5000 w gladys,41.87585046047074,-87.74943333527612
4500 w foster,41.975480711399996,-87.74073242049296
2100 e 67th st,41.77354119837339,-87.57394695384113
3700 n halsted,41.949172213528094,-87.64959246072254
300 e 21st st,41.854362504327824,-87.61953208673323
11600 s princeton ave,41.683332370630644,-87.63008504249477
4100 s indiana,41.81986788481737,-87.62152683045734
1700 s indiana,41.858712052455424,-87.62237884214277
2600 n mozart st,41.928752104908156,-87.69881259845963
900 w huron,41.89527985,-87.6504639694198
1 e 16th st,41.860078380684,-87.62711087094391
7700 s peoria st,41.75408607799065,-87.6465883265622
3500 n clark,41.945708138207685,-87.65535951820627
7700 s calumet ave,41.75455391035261,-87.61664926496019
1300 w 15th st,41.86162316119099,-87.65904229369944
2700 n francisco av,41.93037824562873,-87.70006896145168
3000 w logan boulevard,41.92870250432785,-87.70260472162269
800 w armitage av,41.918274993707335,-87.64860529307808
3100 n linder ave.,41.93684435915461,-87.76407035915459
8500 s indiana,41.74001551495819,-87.61950222475033
6400 w diversey,41.93101650043268,-87.7860405
2300 w superior,41.89490549321932,-87.68461133819031
8600 s avalon,41.738172841248726,-87.59345428631181
1400 n claremont,41.906807161809695,-87.68592890316789
1300 w addison,41.94711747879261,-87.66176327699232
7000 n francisco,42.00847758231328,-87.7021885855349
2800 n oak park,41.93092812604151,-87.79551049381108
2200 w hubbard,41.88966749321933,-87.68193261226843
10100 s martin luther kin,41.71080499417161,-87.61389829381363
4400 s mozart,41.81356724562872,-87.6956293265622
6600 s kedvale,41.77300424562873,-87.72630035209744
1100 s paulina st,41.86803351151572,-87.66898488381193
8200 s cottage grove,41.74563605245544,-87.60511781934885
11600 s harvard,41.68333138562928,-87.6312810018939
3300 w division,41.90282045325739,-87.70942920996595
2000 n halsted st,41.91832682653356,-87.64856040648611
2600 n spaulding,41.928383228525604,-87.71092197766663
4200 w madison,41.88069550822297,-87.73085177699232
700 n campbell ave,41.89394821402308,-87.68930946125563
2700 n mildred,41.9309804074384,-87.65140685209744
6800 s clyde,41.77147382653357,-87.57401929381363
6700 s stony island,41.773051382739894,-87.58627668544031
1 w chicago av,41.89665652510252,-87.62836088773155
5400 n lind,41.97837372816138,-87.76475491364174
2100 n mcvicker,41.91799416180967,-87.77677888484602
4800 n sawyer,41.96849521335341,-87.70973046053442
2400 n leclaire,41.92422976573028,-87.75373466377874
1 e pearson,41.89745273379383,-87.6281527236454
400 e 64th street,41.77849173595585,-87.61551850105008
200 n milwaukee,41.885807464122635,-87.63983209282453
300 s columbus dr,41.87826116189475,-87.62082167690447
4800 n winchester,41.96881824271181,-87.67775438339619
6100 n clark st,41.993055387731545,-87.67023997587843
1800 w irving park rd,41.954249460470756,-87.6733015284494
4600 n broadway st,41.965420417606495,-87.6575672144422
1900 w belmont,41.93962348600596,-87.67608202553522
10300 s hale,41.706551990868384,-87.66866734100958
1200 w greenleaf av,42.010494296489775,-87.66061654746481
100 n jefferson st,41.88321254290364,-87.64276017003756
7200 s euclid ave,41.76417474271452,-87.57813776827841
5200 s harper,41.800822575076474,-87.58913981213549
7100 s seeley,41.76471027812737,-87.67481494412283
2300 n keystone,41.92277291035259,-87.72797091038125
8500 w sunnyside,41.96135647489748,-87.83961341909516
5000 w monroe,41.87946651154118,-87.74964369317327
7800 s paulina,41.75196313627447,-87.66591829381363
7200 s crandon,41.7642477171793,-87.56892979381365
1300 w wilson ave,41.965410890352395,-87.66239079954364
2000 w 68th pl,41.7693515115412,-87.673851
1900 e 86th st,41.73889222270061,-87.57809711777054
7300 s st lawrence,41.761944387731546,-87.61034779381363
1000 e midway plaisance,41.7876806075645,-87.58785999644762
2500 w moffat,41.91484447489747,-87.68994316763805
2500 w 113th st,41.688163486005976,-87.68373244463038
1100 w cullerton,41.85530422330105,-87.65320217323442
10400 s vernon ave,41.70536113627446,-87.61253780102699
2400 s karlov,41.84774966472385,-87.72628940316788
600 e 50th pl,41.803110511541206,-87.61089191909515
1900 n winchester,41.915999250501024,-87.67642945640303
400 s columbus dr,41.87688606754699,-87.62069322093538
1700 w 18th st,41.857787460470746,-87.66890002553522
100 s sangamon st,41.88025704662704,-87.65085034488408
1700 n mango,41.9112788731606,-87.7691696517108
5000 w 55th st,41.79304364934919,-87.74682764934917
5200 w jackson,41.8766654760513,-87.75525196586644
5600 w balmoral,41.97938887240713,-87.7683555
1900 n paulina,41.917096529834396,-87.67035570263702
200 e pershing,41.82379649321934,-87.62135344463042
3700 w montrose ave,41.96106449321932,-87.72068211226845
7500 s peoria st,41.757569329447755,-87.64667930102699
5100 w washington,41.8818017553305,-87.75274975533047
7600 n sheridan road,42.01947509241738,-87.66616495507506
3600 w harison,41.873637447709044,-87.71572950525847
1100 n cleaver,41.90275125062883,-87.66386995653583
3900 n avondale,41.95181785075,-87.72927888058331
2900 w berteau,41.95765384628103,-87.700873846281
100 w grand av,41.89163347489747,-87.63144236081135
2800 w 25th st,41.846530713157975,-87.69528021315797
5300 n clark st,41.97812386372557,-87.66838047977355
5700 s cicero,41.78706025823367,-87.74151072547264
500 w roosevelt rd,41.8672634643659,-87.63954155398464
2100 w 71st pl,41.76387051154121,-87.67611
800 w madison st,41.88180246768409,-87.64761191909516
7700 s bishop,41.75389796863641,-87.66031683045735
1200 n lasalle blvd,41.90391204778713,-87.63296865466096
6100 n western ave,41.99246063336028,-87.6897594614517
4000 w dickens,41.919070799974115,-87.72664725
1600 w 73rd st,41.76134451921307,-87.66377217690487
10000 s calhoun,41.71335313627446,-87.5621897682784
2200 n drake,41.92103920586156,-87.71534099997835
500 w diversey,41.932921119000895,-87.64147000298273
400 n dearborn st,41.88906170938903,-87.62959738484602
4900 w saint paul,41.912344486005956,-87.7494015
2300 w cermak rd,41.85212687758679,-87.68327148614519
1500 w morse av,42.007890497114474,-87.66813463780367
800 e 59th st,41.787761805753775,-87.60599655199638
7400 s east end,41.76054374549096,-87.58357343163748
7100 w gregory,41.98200713363913,-87.80473910482056
1700 e 87th st,41.736960511541184,-87.58258258673322
2500 w 51st,41.80113148600597,-87.68688252844942
1800 w 81st st,41.74671046171093,-87.66827219761349
4400 s wolcott,41.81392350458051,-87.67245371267141
1800 n bissell,41.91382927236396,-87.65203140487715
800 n lasalle,41.89668495125943,-87.6327887488224
1 e walton st,41.89984831782537,-87.62821422565142
1800 s blue island av,41.85759533917128,-87.66143484375891
4100 n kedzie ave,41.9559014074384,-87.70809841369946
200 w 87th st,41.736030463788964,-87.63068249999998
900 w 34th pl,41.83182361733694,-87.64862074740276
2600 n bosworth,41.928858890714714,-87.66711126988933
2700 n magnolia,41.930872407438414,-87.65987983377558
1600 w division st,41.90337246047074,-87.6676129730798
800 w agatite,41.9627658524232,-87.65001935242319
2500 n kedzie ave,41.92657199999999,-87.70765835926376
1200 n dearborn st,41.90414396863639,-87.63003836320593
500 w ohare,41.96637000000004,-87.84857999999996
4900 w waveland,41.94793948600597,-87.74986419317328
2900 w cermak road,41.85192171959896,-87.69914121959894
2400 w 71st st,41.764763753704116,-87.68332090022629
3400 w 38th st,41.82437151875457,-87.70950411226845
6700 s paxton,41.77328274271451,-87.57161981934885
3400 n lincoln ave,41.94368712960936,-87.67148738816424
9000 s parnell,41.730696,-87.63742085209743
1500 n greenview,41.908931161809676,-87.66522987763267
5300 n bernard,41.977637413266784,-87.71484996866505
4000 w madison,41.8807395337582,-87.72586136081135
2300 e 70th,41.76714748600597,-87.56943236081135
600 w barry,41.93796041648229,-87.6444226840596
4800 w huron,41.89323032420658,-87.74583016662945
400 w armitage,41.91836879913246,-87.63887729913246
7900 s bennett,41.751518638980386,-87.57845886101963
1800 w thomas,41.90151177893009,-87.6724112789301
4800 n menard ave,41.96774922814621,-87.77285997727205
2300 e 68th st,41.771777042967614,-87.56985629903204
8100 s green st,41.746831994171636,-87.64516976827841
1200 w 51st,41.80146546047076,-87.65526191909515
100 w illinois st,41.89089936112345,-87.63117012666928
2300 n stockton dr,41.923863836508886,-87.63580032164604
1100 w fullerton av,41.92542284547169,-87.65611868370098
5900 w belmont av,41.938531623571684,-87.77430953181991
1600 n lemoyne st,41.90917078810693,-87.66773128810689
1500 s laflin,41.8614245762175,-87.66391625369249
1100 s hermitage av,41.86800089489339,-87.67019302489011
3800 n broadway,41.951483298084156,-87.64962937099621
300 e erie st,41.89427577026339,-87.62020622973664
8700 s elizabeth,41.73585585857303,-87.65460500316819
6600 s stewart,41.774192214265106,-87.63494726106505
1500 w highland,41.99730749321933,-87.66795077699233
600 e 90th pl,41.73020248600597,-87.60934302844942
12300 s emerald,41.67038654954123,-87.64047970999461
2600 n laramie,41.92781532765471,-87.75633235148413
5100 s kolin,41.80032312321465,-87.73200528088873
4300 w kamerling,41.90527948600598,-87.73390302844942
4800 w ohio,41.891448623288156,-87.74576238069977
5300 w bloomingdale,41.91314548600596,-87.75841469608747
4200 w palmer st,41.92078148932419,-87.73190116763806
300 s seeley,41.877392225434384,-87.6777869432769
2600 s kedvale av,41.844144416104676,-87.72824358699756
9100 s parnell,41.72871499417161,-87.63737682656222
3200 s halsted st,41.83587824562872,-87.64626687763267
06800 s union,41.77053799417163,-87.641760323244
7200 s christiana,41.76236599417163,-87.70646082656219
1500 w fullerton ave,41.92527027543522,-87.66582928645262
300 s michigan ave,41.878201427234,-87.6244566322341
1600 n wolcott,41.910571839177535,-87.67507985751145
800 n halsted st,41.89645845360409,-87.64780218556244
900 w 36th st,41.828676504327824,-87.64785050291418
2700 w cortez st,41.90023948600597,-87.69451066763806
100 n carpenter,41.883094493260714,-87.65327319281143
5500 w hirsch,41.90582840449215,-87.76413718673649
2800 w 40th st,41.82112143759794,-87.69467031628015
1100 w 19th pl,41.85599872447117,-87.65322322447119
3700 w cornelia,41.94464247879261,-87.72021041909515
1 s clark,41.8819215067231,-87.63082130717129
700 s lasalle,41.873245878989,-87.63170782266708
2800 n newland,41.930903157440035,-87.79921204711835
1900 w walnut,41.88595890540236,-87.67440109845967
4800 n clark,41.969122564804685,-87.66757051682131
6 w 14th,41.86410587407952,-87.62763476048075
2200 w cullerton,41.85490422085348,-87.6808995518823
4900 w winona,41.97458196092286,-87.75071674962366
2900 n wisner,41.93344617963065,-87.71443402245383
4500 n ravenswood,41.96355207799064,-87.67461793591646
4800 s keeler,41.80594887992678,-87.72847807013812
1600 w haddon,41.90233861001005,-87.66756141871264
4400 n sheridan rd,41.96200466472389,-87.65477949030516
9000 s ashland,41.73029100000001,-87.66295986123073
3400 n pulaski road,41.943356580904826,-87.72733746866507
900 w montrose ave,41.9608782,-87.7349334
900 e 130th st,41.65921752872081,-87.60301793453577
3200 w 52nd st,41.79907248855728,-87.70379079355139
500 s austin ave,41.788361477166866,-87.77191574658089
1700 w 47th st,41.80864066793815,-87.6674746679382
100 n greenview,41.99397862902715,-87.6676815
2000 n racine,41.918246413266786,-87.65827041038123
2900 s emerald,41.84155699417161,-87.64518088484601
1400 w morse av,42.00792446436589,-87.66603291771018
7600 s marquette,41.75710238773155,-87.5585668337756
2400 w devon av,41.99776446047074,-87.69063200565546
8700 s jeffrey,41.73697206623539,-87.57576522213293
700 n throop,41.89520345,-87.62373507429783
4500 n damen,41.963319556220064,-87.67907258726541
1 e lake st,41.88568023984377,-87.62788323984375
1100 s whipple,41.868201502911184,-87.70210767716817
6600 s rocwkell,41.77355371717931,-87.68842677549179
11100 s hale,41.691881100350415,-87.6710065457316
2600 s california blvd,41.8504087,-87.69065843850653
3700 n kenmore,41.94906532976304,-87.65563037811806
3900 w 19th st,41.855032507646044,-87.72269441909515
2700 s wentworth,41.84372750291417,-87.63184838095087
8000 s ridgeland,41.74940598220473,-87.58169886104142
3200 w maypole,41.88368151499583,-87.70629296507681
400 e 61st st,41.78389244214888,-87.6154822543713
1100 w 00 str,41.96942979999999,-87.65802631617659
600 s clinton,41.874322250952346,-87.64098495147394
900 n keeler,41.89715221399431,-87.73110096122463
1100 e 46th st,41.81152238729538,-87.59919761604742
6400 n northwest hwy,41.99714177710789,-87.80709681490545
1000 s canal st,41.86968762108121,-87.63934733053568
6300 s albany av,41.99579475,-87.70719619769919
600 w washington bv,41.88318749321932,-87.6431205
300 s campbell,41.87741827305039,-87.68881547412386
1600 w marquette,41.77221346826103,-87.6644140284494
2300 w lawrence av,41.96866347879261,-87.68663413780367
6100 s eberhart,41.78371475,-87.61382506987113
3100 n natchez,41.93660713627446,-87.78836091038124
3400 n central park,41.94298699417163,-87.71752887763266
2100 n laramie,41.91874104662705,-87.75601737763266
3700 n lsd,41.895487486005976,-87.71896294463038
3200 w crystal st,41.903824781701104,-87.70688128170109
10300 s calumet ave,41.8446068,-87.6188379
3600 w cornelia,41.944898506313294,-87.7181986259302
1000 w 31st,41.83711584128467,-87.65119904558317
6300 n nagle,41.99560535857165,-87.78756035857164
3800 s princeton,41.82505674744021,-87.63383946017336
3000 w 42nd,41.81733392928506,-87.69947941445446
1300 n paulina,41.90567640707828,-87.67006180311449
300 n union,41.886854111554825,-87.64573208035948
8500 s houston ave,41.74069130397452,-87.55026602514148
6400 n magnolia,41.99822165781875,-87.66189149028887
1600 s throop,41.8596615,-87.65895935993444
4800 s martin luther king,41.80741445,-87.61716515526469
100 n park dr,41.886030359670116,-87.61917035967012
4300 w wrightwood,41.92804745325739,-87.73437102844942
1 s wabash,41.88199960277396,-87.62610818838917
5000 w fulton,41.88570050432784,-87.75053019317329
7000 s yale,41.76715910089971,-87.63110729914763
600 e 82nd st,41.78468745,-87.60074932651054
2700 w 24th st,41.84832748600596,-87.69305186081135
1100 e 90th st,41.731301460470746,-87.597234
7000 n ravenswood,42.00902392950189,-87.67538028558461
1800 w taylor,41.86927374034248,-87.67147074034247
2300 w wilson ave,41.964979264409315,-87.6864699377079
2800 n laramie,41.931469915490865,-87.75647128295195
4300 s maplewood,41.9283654,-87.69533390000002
2200 n racine av,41.92172285894869,-87.65838933809259
8400 s honore,41.74099107799066,-87.66931880102699
2800 n greenview,41.932727329447744,-87.6660089392347
2700 w winona st,41.97519395,-87.69683676858706
800 w montrose ave,41.961901851384965,-87.64996085138495
3400 n hamlin ave,41.942915549541226,-87.72241040316787
3000 n elbridge,41.93545981963293,-87.71725318036707
1300 n lasalle,41.905916465722214,-87.63301037431444
200 s jefferson,41.8792353111538,-87.64262197656885
3300 w lawrence av,41.968450486005956,-87.71113266584905
2000 n california,41.91755570783197,-87.69726948476324
1900 w devon,41.99802636105609,-87.67689937549835
2600 n clark st,41.929893619193344,-87.64328754858894
4600 s lake shore dr,41.81279158185983,-87.59109844626354
3100 n st louis,41.93754300000001,-87.71491093591646
4700 w wabansia,41.911563534799306,-87.7436025113501
1600 n karlov,41.909904032548596,-87.72882058194841
4000 n kenmore,41.954696214265105,-87.65606988874117
3000  flournoy,41.87285248600597,-87.70114302844941
3200 w 26th st,41.84454352596792,-87.70537311226845
2600 n cannon dr,41.9139354,-87.62738
1000 w taylor st,41.869587464521004,-87.65119048000506
8400 s hoyne,41.74094607799066,-87.67536829381363
2000 w potomac,41.90504760722929,-87.67739392765577
2200 w cortez st,41.90039248600596,-87.68224311226845
8800 s commercial,41.73538513627446,-87.55141931934885
4400 n spaulding,41.96123194239829,-87.71074321999815
2400 s sawyer,41.84798223980033,-87.7064188337756
8600 s bishop,41.7374631618097,-87.6594988265622
800 e 83rd st,41.74403952608039,-87.60495686479963
6400 s pulaski,41.776450994171626,-87.72272778660026
2300 w 51st st,41.801167486005966,-87.68197366763805
900 w wrightwood,41.92922965,-87.65152214430486
9400 s ashland,41.722632052455424,-87.6627593316112
500 w 63rd st,41.77993853578938,-87.63761370428091
1400 w foster ave,41.976336708028434,-87.66485249874037
2500 w 58th st,41.78841588101221,-87.6864213370589
3700 w 66th pl,41.77261890000001,-87.71544493314616
7800 s escanaba,41.75325455234961,-87.55411726269148
2700 w augusta,41.89937877637503,-87.69438449999998
2800 w harrison,41.873881745854185,-87.69618024585421
1900 s jefferson,41.856719640035465,-87.64186835996455
5800 n campbell ave,41.98693424562873,-87.69202694312979
4500 n kimball,41.9630050948999,-87.71324957416005
5200 n rockwell,41.97608155536963,-87.69409945366141
2500 n lawndale,41.92649874271453,-87.71950790316791
3500 w fullerton av,41.92465152986306,-87.71477336081135
800 n central park,41.895550130677655,-87.71635004113186
5200 w congress,41.87400678013459,-87.75490169055814
900 w lawrence ave,41.96923023043521,-87.65265294630562
1 w 36th st,41.82914997187598,-87.62659081410233
5000 s damen,41.80288424562872,-87.67459730102699
10200 s yates,41.709743413266786,-87.56454679381363
1200 s washtenaw,41.86646549946936,-87.69345520639217
2200 w highland,41.996982374955756,-87.68505336010251
3900 w 26th st,41.844326467684105,-87.72232091909515
2700 w crystal,41.903959370407975,-87.69451118939358
7700 s yates,41.75520241326677,-87.56632085209743
1500 e 59th st,41.787948718849584,-87.58924084247163
5500 s state,41.79407282653353,-87.625727301027
4000 w armitage av,41.917175453257386,-87.72680322300768
6400 s wood,41.77744107799066,-87.66906935209744
700 w polk st,41.87200242050879,-87.64402375298631
400 e erie,41.894321456322224,-87.61767792682639
7900 s dorchester,41.75126924562872,-87.59065880102699
100 e chestnut,41.89836951875456,-87.6255647216227
6900 n clark,42.00658865077103,-87.67345320973075
2600 n kedzie av,41.928475242858774,-87.70785718197789
4900 w madison st,41.88050748268776,-87.74795169317329
4600 n winthrop,41.9657745712531,-87.65626402908369
1400 n mohawk,41.90871532944775,-87.64217895034321
2200 s blue island,41.8517440406652,-87.66759295419806
2500 n kedzie bv,41.92657199999999,-87.70765835926376
2200 s wood st,41.85217328357525,-87.67096398542824
8000 s may,41.74850404524207,-87.6525002682784
4400 n st louis,41.961163455950214,-87.71564025006529
100 e huron,41.894951489324214,-87.62533216763805
2500 s homan av,41.84613896863641,-87.7099888265622
700 s sacramento,41.872617136274464,-87.70102043202135
7100 s campbell,41.764603542076,-87.68573775196461
10000 w ohare lot f,41.96637000000004,-87.84857999999996
1300 w taylor,41.869461981668955,-87.65924948625644
1800 s paulina,41.85769952162161,-87.66869622921
1100 w randolph,41.88432951875456,-87.6547527799065
700 e solidrity,41.8665164346044,-87.61254569277905
1500 w jonquil ter,42.021211693777474,-87.66905076075264
11900 s halsted st,41.67775253665153,-87.64202821596645
5600 w fullerton ave,41.92406491928698,-87.76606167464622
2500 n halsted st,41.927649251767676,-87.6488941599282
1800 w 47th st,41.808574486005966,-87.67018366763806
1 w barry,41.93689652944424,-87.75486329112888
2700 s kostner,41.84220061248887,-87.73428729182068
2800 n milwaukee av,41.93233203246013,-87.7128184632407
1500 w division st,41.903413478792594,-87.66517461226843
3700 n leavitt,41.948737407438415,-87.68348735209743
5 e garfield blvd,41.79423677131853,-87.62546629637033
800 w sheridan road,41.95279285053441,-87.64971430796754
9 w walton st,41.89984193164551,-87.62867074646425
1600 n winchester,41.91054491568895,-87.67631278316017
3500 w lemoyne,41.90822248600597,-87.7144540284494
3200 n clifton ave,41.93987412596936,-87.65774299373044
1400 w arthur,42.000043344489995,-87.66564844297187
6800 w medill,41.922438297374775,-87.79527775670002
3900 s artesian,41.82290099920199,-87.68614711314062
2400 s spaulding,41.84797496863641,-87.70761838484601
2400 n halsted st,41.925502551671016,-87.64882263564982
1900 n bissell,41.91598806217896,-87.65207745755657
800 w 34th pl,41.831850617368715,-87.64621324743544
200 e ohio,41.892591518754564,-87.6224432514571
5700 s harper,41.791477520958146,-87.58908672984795
3100 n keating ave,41.93720924562871,-87.74561939205938
8700 w catalpa,41.9792347184309,-87.84410099567692
00600 e 40th st,41.82149268326662,-87.61110749999996
6100 s bishop,41.78302163336028,-87.6607073154537
6000 s rockwell,41.78453413627446,-87.68870735209744
2600 w 25th pl,41.84565448600597,-87.69081086081135
2700 s drake,41.84244913627447,-87.71353835209743
5700 n kenmore,41.98579238773155,-87.65667747256019
6800 s michigan ave,41.77086157507645,-87.62187776827841
6800 n glenwood,42.0054848429352,-87.66586729320835
600 w diversey,41.93284451543634,-87.64381197016561
600 e 75th st,41.758520467684114,-87.61008166763806
1200 s blue island,41.86698525981515,-87.65342525088242
5000 s lake park,41.80413874548448,-87.5885358330831
1200 n karlov,41.90271302381906,-87.72878459025009
4300 n hermitage,41.95977450645761,-87.67240267864055
9300 s indiana,41.7252867171793,-87.619107323244
7900 s elils,41.751255801367904,-87.60038548980211
100 n canal st,41.88335380099832,-87.63980987431447
1500 e 93rd st,41.726062520995924,-87.58784797935881
3400 s emerald,41.83255349912749,-87.64498570672066
6800 s cornell ave,41.771339077990646,-87.58504985209744
3000 w eastwood,41.96566048600596,-87.70363127699233
5000 w addison,41.94608548600596,-87.7521917514571
6700 s wolcott,41.772046520763524,-87.6713287300351
100 w superior,41.89569730129821,-87.63128173751045
1100 e 54th st,41.79796050043269,-87.59947436081137
2000 w warren boulevard,41.882256511541186,-87.67682133527613
8300 s seeley,41.74285945099706,-87.67423565924774
11200 s avenue g,41.69177663837496,-87.53169936162504
1400 e 57th st,41.79158698240647,-87.59153823002504
7200 s ridgeland,41.7641209103526,-87.58241681213549
300 w armitage,41.91847527750768,-87.63614521393845
1500 s trumbull,41.86071871717931,-87.71163035209743
5500 s winchester,41.79351045788229,-87.67309613159046
2800 n broadway,41.93281721594418,-87.64494576139309
700 s keeler,41.872381658895506,-87.73032988484601
3400 n overhill,41.94144838190317,-87.81910737763266
2100 w granville,41.99428268188125,-87.68248356556253
4900 s honore,41.8043454975262,-87.67097911580527
8500 s ingleside,41.7402449686364,-87.60130932656222
900 w diversey,41.93275746388353,-87.65152004627635
3000 w north ave,41.91021747879261,-87.70244260075592
7500 n clark,42.017935327569866,-87.6757604856526
300 w madison st,41.88200875557822,-87.6353987555782
100 s dearborn st,41.88066864027351,-87.62943935972649
8000 s king dr,41.749046329447744,-87.61494084156584
1500 w 82th,41.744999816993754,-87.66096029685394
3500 w cortland,41.9155364787926,-87.71364402844941
8100 s ellis,41.74748907799064,-87.6002597682784
1800 s michigan ave,41.85765799417163,-87.62395089984966
1 w chestnut,41.89793689978581,-87.62832790710337
2000 n lamon,41.91695435935839,-87.74872085935837
5100 w diversey,41.93151329128668,-87.75419992206085
3400 n southport,41.943555031363616,-87.66395841038124
200 s wabash,41.87933080099833,-87.6261168926363
400 w oak,41.90052906321772,-87.63948526627667
300 w dickens,41.920230967666775,-87.63645261913777
4700 n malden,41.96732219816494,-87.66262913826502
1000 n kilbourn,41.89888120607484,-87.73857000020033
1400 w lexington,41.87260345914309,-87.66184102761251
5900 s damen,41.78656342631764,-87.67416813311226
3700 w potomac,41.90461562153799,-87.71914491309973
9500 s halsted st,41.72126299417161,-87.6433108337756
5700 s ellis av,41.7913333294244,-87.60138503369578
2600 e 74th st,41.76097782405206,-87.56161650403936
3400 w armitage av,41.91742335178847,-87.71200273959995
3200 n sheffield,41.94010682653357,-87.65414892870312
3100 w cermak rd,41.85186570843503,-87.7028826404579
2200 e 67th st,41.77357746443862,-87.57151722877316
900 w argyle,41.97335150432782,-87.65262394463038
1400 s state st,41.86389532944776,-87.62745884820231
4400 n milwaukee av,41.96087884817364,-87.75472368861429
3000 e 80th st,41.7501344787926,-87.5513920284494
3500 s artesian,41.830011136274464,-87.68630885209744
200 e wacker (ll) dr,41.88828837714485,-87.62228528329895
3800 s hermitage ave,41.824903426701006,-87.66908763274489
3900 w 48th st,41.806182531430146,-87.72115176939846
8000 s mozart st,41.747957245628726,-87.69381935209744
3000 w 42nd st,41.81733392928506,-87.69947941445446
8600 s manisteee,41.738957413266775,-87.557570301027
4000 w west end,41.883430757280045,-87.72580825728005
2000 w taylor,41.86918046396129,-87.67645528344183
1800 w ogden av,41.876799423963966,-87.67170350436443
2600 n lakewood,41.92895612058407,-87.66103342994919
8000 s california ave,41.747984161809676,-87.6926398337756
6200 n cicero,41.99312932933615,-87.74838887767565
600 s wabash av,41.87426332944776,-87.62602040316791
3500 n seminary,41.94539208609327,-87.65674308291722
2400 n meade ave,41.92386635928932,-87.77821835928933
100 e cullerton,41.85557572396564,-87.62380627603437
1600 e 50th st,41.804429321493814,-87.5864075059138
800 s state st,41.87173952175998,-87.62762472907694
600 w kinzie st,41.88908151601326,-87.64328186081137
500 n wells,41.890958549541246,-87.63408935931079
4700 w race,41.8905275115412,-87.7433620284494
6900 n wayne,42.00693110352589,-87.66504745366144
200 w 22nd pl,41.85224424847622,-87.63207464264838
6600 s kimbark,41.77486716180968,-87.59454829381363
3900 n sheridan rd,41.95291407799064,-87.65453893591646
9600 s hamilton,41.71903124562871,-87.6760078337756
1200 w fullerton av,41.92528947157923,-87.65874427990651
3200 w 63rd pl,41.77811122902178,-87.70319248971983
1400 w cornelia,41.94532383147281,-87.66405933147281
1200 n milwaukee av,41.90334688838472,-87.66658924812046
2100 n kimball,41.91922143009053,-87.71200178025745
1800 w evergreen av,41.90794665598496,-87.67376861969892
5700 w madison,41.88021446436589,-87.7683242514571
5000 s martin luther king,41.803693239800346,-87.61675031934885
7600 s drexel,41.75670081935125,-87.60293700834117
4600 n kedzie av,41.96482116180968,-87.70840694312983
2600 e 79th st,41.75186932266544,-87.56131604823706
3700 n janssen,41.94899899417163,-87.66531840648611
1300 s springfeild,41.8642369103526,-87.72268685209744
100 w erie st,41.89404748600597,-87.63158300291418
2900 n springfield,41.93370144979645,-87.72462973377205
7500 n paulina st,42.01714271180143,-87.67310700368117
3000 s archer av,41.84002393340629,-87.66136219429846
1600 e 86th pl,41.73789405827971,-87.58516754225448
200 n homan,41.884777552045634,-87.71117913604857
600 w 62nd st,41.78468745,-87.60074932651054
2000 w van buren,41.87622547489746,-87.6768432485429
1300 w roscoe,41.943470467684115,-87.6616420284494
2100 n mango,41.91810199417162,-87.76944087763266
1400 w walton st,41.898928775836026,-87.662551775836
2200 w wabansia av,41.91271492590117,-87.68263258082321
3500 n lakewood,41.94553424562872,-87.66158942091282
5600 w 64th st,41.77631038583645,-87.76171126147386
1500 s wabash,41.861675480819116,-87.62573564894909
6700 s promontory,41.77741061414083,-87.5719325494006
6400 n richmond,41.99754824971416,-87.70337995558529
700 e 92nd pl,41.72660248600596,-87.60682311226843
1600 s wabash av,41.860061413266784,-87.62567035599257
7900 s maryland,41.75099899417162,-87.60399777549179
3300 n lawndale,41.94111482653355,-87.71992737763266
4800 s paulina st,41.806384658895496,-87.66738927549177
5000 s kolin,41.80212807799066,-87.7320408593108
4700 n broadway st,41.96723684922036,-87.65872480568966
1700 n clark,41.91314351626231,-87.63291889177873
4200 w cortland,41.91533495271504,-87.73144312200546
100 n austin,41.88774000000007,-87.76391999999998
7200 s constance,41.764225562654346,-87.58060427299951
5800 s maplewood,41.78814224562871,-87.68757785209743
3000 w flournoy st,41.87285248600597,-87.70114302844941
3300 s halsted st,41.83469916180968,-87.64624985209744
2900 n lakewood,41.934348720441434,-87.66122093191204
2500 s california bv,41.84639489948853,-87.69474608959
8700 s state st,41.736357781437405,-87.62422187738508
800 n lavergne,41.89500390439185,-87.75074981185615
1700 s union,41.8590436588955,-87.6448898154537
5000 n sheridan,41.97354246572221,-87.6549904287031
2200 s central park,41.851588542947724,-87.71502825112577
2600 s troy,41.84447725580478,-87.70386241924835
2200 w north ave,41.91040745325739,-87.6825122216227
700 e 32nd st,41.83608197683439,-87.61124849634226
2800 w diversey av,41.93217481569122,-87.69762674999998
4000 n troy,41.95398510922225,-87.70684344008062
1500 w berwyn,41.97808292324371,-87.66842979789169
1900 w ogden av,41.874740368171466,-87.67413840947964
12300 s princeton,41.67059682619284,-87.62970647012875
2400 w 55th st,41.79393315154884,-87.68413059866839
1800 w augusta boulevard,41.89971177677389,-87.67236177677391
3200 n clark st,41.939924379156345,-87.65071225028959
1300 w roscoe st,41.943470467684115,-87.6616420284494
3900 n pulaski rd,41.952535477651104,-87.7276430190422
3700 n southport av,41.949027,-87.66412041038124
1 s karlov,41.880625785853894,-87.72803903861187
4700 s wood st,41.808478400335176,-87.66987510606205
200 w 24th place,41.84832970921662,-87.63199319829292
1600 w 46th st,41.81049357689067,-87.66509073623041
5400 s hyde park,41.797638220093496,-87.58402735599256
1500 e 53rd st,41.79957651875456,-87.58883186081135
2200 w devon av,41.997847493219325,-87.68551091909515
2500 w howard,42.01940207923482,-87.69286227439503
700 e 78th st,41.753129169673095,-87.60762497358131
5800 s ada,41.788232884817376,-87.65839985209743
500 n halsted,41.89124044517585,-87.64766076598795
3300 n albany,41.94116874271453,-87.70523840316788
1200 n hoyne,41.903191253312656,-87.679760423374
3700 n hoyne,41.94870513155529,-87.68109157205767
1700 w 21st pl,41.85321448600598,-87.66867166763805
2500 w sunnyside,41.96317085290988,-87.69124835290987
2300 w cortez st,41.90039461873873,-87.68459390588394
4500 w west end,41.883303541282906,-87.73809443941887
1200 n maplewood av,41.903020327879574,-87.69078985172537
2600 n milwaukee av,41.929053048894154,-87.70754814635285
7100 w higgins,41.98070516515654,-87.80487569816496
2600 w 106th st,41.700928539863476,-87.68659053986347
3600 w montrose ave,41.96110648600597,-87.718644
2400 n fairfield,41.92547564611482,-87.69627954435083
2000 w cullerton,41.85493348600596,-87.67607336081134
2100 n california ave,41.91973074271453,-87.69730090259097
300 w erie st,41.894023306410105,-87.63570072854195
2500 n orchard,41.92797628282071,-87.6464568737375
3900 w 85th st,41.738592518754565,-87.71932311226843
2200 n cannon dr,41.91981870589062,-87.63127711388886
7600 s cicero ave,41.75596585206878,-87.74161683218811
2700 n lehmann ct,41.93171393825809,-87.64336625303234
13200 s riverdale,41.65523114764275,-87.6111012803392
2600 s homan,41.844213,-87.70993041038125
8200 s whipple,41.74424038190318,-87.69861724274318
6000 w belmont av,41.938509442391045,-87.7762726610358
1100 w grand av,41.89111248990111,-87.65484227699233
10600 s talman,41.70066182653355,-87.68814775385168
5900 n broadway st,41.98921149708582,-87.66028947977354
1700 n leavitt,41.912713984848594,-87.6824507158168
500 w winneconna,41.75192794200464,-87.63701695934557
4600 s wood st,41.810200407438394,-87.669930801027
3600 n hermitage,41.94719924562872,-87.67248744644805
6200 s kedzie,41.780741639274495,-87.7032348607255
1200 w altgeld,41.92714245337164,-87.65860212428743
3200 w lawrence ave,41.968466453257385,-87.70875172162269
2100 w 23rd pl,41.849490440908276,-87.67828945560518
4000 n elston av,41.95373710780434,-87.71934143531739
100 w superior st,41.89569730129821,-87.63128173751045
1600 n austin,41.909314942051736,-87.77557497516503
1700 w 00 street,41.88425000000007,-87.63244999999996
3600 s indiana,41.82955629919694,-87.62178800191558
1 e 55th st,41.795109,-87.59330617174793
2000 w montrose,41.9614905004327,-87.67943150291418
7100 s vincennes,41.76545959275539,-87.62799351422863
7100 s lowe,41.765031136274466,-87.64008686320592
2500 w 45th st,41.81209050043269,-87.6871705284494
9 e grand ave,41.89158235760786,-87.62778730617788
7700 s martin luther king,41.75461691035258,-87.61506933045735
5000 w lawrence,41.968047034930784,-87.75266160802273
2300 n sheffield av,41.923594731205746,-87.65360146200028
4700 s harding ave,41.807814512264976,-87.72237422581918
1 e jackson boulevard,41.87813074976716,-87.62759379877762
4200 w armitage av,41.917132486005954,-87.7316305284494
1700 w 49th st,41.80501253005652,-87.66737226798412
1700 n lincoln,41.91553405974718,-87.63442642794699
2500 e 71st st,41.766404835345675,-87.56462813561765
3000 w harrison,41.873825924736906,-87.70109149258154
600 n monticello,41.8919129686364,-87.7174478776327
1 s wabash av,41.88199960277396,-87.62610818838917
3600 s damen,41.82844382653357,-87.6752688593108
1200 n bosworth,41.90343525062225,-87.66623245652899
3800 w montrose ave,41.96104348600596,-87.72321191909515
3000 w 62nd st,41.78092848479968,-87.6983907550192
700 n central,41.89308199417161,-87.76535991759461
7800 s cottage grove,41.753056891957705,-87.60530510847994
3800 s vincennes ave,41.82566861567045,-87.61217838983488
3200 n broadway st,41.940101398774274,-87.64447031059713
1200 w taylor st,41.86948974060081,-87.6568187406008
7000 n ridge,42.0090025346735,-87.68196778532518
5000 n melvina,41.97218483819032,-87.78314091038123
1400 w chicago av,41.89616646768409,-87.66284336081135
500 e morgan dr,41.793244291863616,-87.61124559328171
6100 n rockwell,41.9924151304461,-87.69459837041929
1 s franklin st,41.881536115182655,-87.63527661904911
7400 n sheridan,42.01632517623641,-87.66520548061025
6700 s clyde ave,41.77336441326679,-87.57405680824036
2700 n halsted st,41.93150316180967,-87.64903740648609
1 w 110th pl,41.693394893054226,-87.62322094744282
1700 n humboldt blvd,41.9121436588955,-87.7023183593108
400 w deming,41.92963866224237,-87.63948143978294
5300 w lockwood,41.97791092174954,-87.76030821484203
3100 n greenview av,41.93795036552668,-87.66623234326444
5100 w chicago,41.89497950432783,-87.75333402844942
3600 w cortland,41.91548345325739,-87.71689391909516
200 n lockwood,41.88446865889549,-87.75769040316791
300 e superior st,41.89587488198732,-87.61923625967745
1600 s dearborn,41.8598727485429,-87.62880891038124
2500 s millard ave,41.846075800998335,-87.7160998265622
100 n lasalle,41.88341700000001,-87.63249088484602
1000 w cullerton,41.85528651875456,-87.65163386081134
2100 w 70th pl,41.765717460470746,-87.67615427699232
1600 n larrabee,41.91128899417164,-87.64348036262898
12000 s indiana,41.67607480099832,-87.61778973552983
1200 n leavitt,41.90312872365921,-87.68221246969759
4800 n ridgeway,41.96836129126679,-87.72195141546551
2300 n ridgeway,41.92280217289258,-87.72066100017824
8000 s indiana,41.74903741326679,-87.61973979049542
1300 w montrose,41.96175655151848,-87.6623191125869
3800 w wilcox,41.879018753100155,-87.72082416175897
700 n rush,41.894984032701686,-87.6254896695347
6100 n monticello,41.9920221693038,-87.72019203432713
900 n wabash av,41.8991193255511,-87.6269290400983
800 w 51st place,41.80073758079268,-87.64540320982907
5800 n st louis,41.98677271717929,-87.71633743591646
1100 w addison,41.9472431227314,-87.657251576166
5400 s sawyer,41.79517124562872,-87.70484787763266
7800 s sawyer,41.75145799417163,-87.70367779381363
2200 n monticello,41.920984506814506,-87.71814067902105
3 s desplaines st,41.88174627956633,-87.6440370901648
1800 w north av,41.91056947489745,-87.67290144754458
2400 w 25th st,41.84664664973082,-87.68557475111223
900 w cuyler,41.955518981604726,-87.65119562812653
3100 s emerald,41.837858161809685,-87.64506890316791
700 w diversey,41.93276347489748,-87.6470535
3500 w 38th st,41.824399686735156,-87.71185818673517
900 w madison,41.88180055377681,-87.64976392409137
6700 s artesian,41.771920687709105,-87.68470740041253
4900 w palmer,41.920608736995575,-87.74873234080101
2900 n honore,41.93512535917406,-87.67422785917404
1700 w 17th st,41.85869646047076,-87.66881061226843
1 w 105th st,41.70340325762036,-87.62350287870504
700 n sedgewick st,41.89476935957922,-87.63858785957923
2800 n kolmar,41.93165725322428,-87.74072287410088
3000 s union,41.83972138190319,-87.64389881934885
100 w huron st,41.8949135831686,-87.63126892683272
1200 n pulaski,41.90272370797045,-87.72633048490988
3500 n reta,41.94560624562871,-87.65067891038125
2700 w polk,41.87110648600597,-87.69386283527612
5800 s kolmar,41.78745740743841,-87.73649726827841
100 n stetson,41.88570784679371,-87.62235555996777
2600 n wayne,41.92899157507645,-87.66223988816424
3400 n broadway,41.94371324908608,-87.64513357434019
800 n orleans,41.896615604058226,-87.6372399707596
400 n rush st,41.889627000000004,-87.62534885963416
3900 n albany av,41.95229316180968,-87.70556091038124
6100 n western,41.99246063336028,-87.6897594614517
700 n washtenaw,41.89391257074468,-87.69424111781349
4500 s spaulding,41.811478407438415,-87.70656882656222
800 w buckingham place,41.94268649321933,-87.6495735
7200 s seeley,41.76283471717929,-87.67475030102699
5700 s drexel ave,41.7913065099403,-87.60378371860105
5000 n simonds drive,41.96968779477977,-87.64571166795133
1600 w walnut st,41.88620971390636,-87.66708521388605
7700 s essex,41.75525703136361,-87.56386880824036
300 e chicago av,41.89687848193023,-87.62007750615558
100 n karlov,41.882104633636494,-87.72820255724487
2400 n pulaski,41.92453932768442,-87.726830351516
1800 w cermak,41.852259511541206,-87.6710925
2300 s sawyer,41.84986937339033,-87.70648707762665
700 n kingsbury st.,41.89473272029633,-87.64153149490973
200 e ohio st,41.892591518754564,-87.6224432514571
1300 w diversey,41.932577949123896,-87.66123060517874
900 n monticello,41.89738399417163,-87.71761790316789
3100 w eddy,41.94584472063068,-87.70541091543156
6400 s kenwood,41.778476329447756,-87.59304985599259
1200 s millard ave,41.86621362104633,-87.71667533056934
4200 n broadway,41.95880189119401,-87.65326787235254
4700 s damen,41.80846954251558,-87.67474875154163
500 w pershing rd,41.82358648600598,-87.63879191909515
1300 n hudson ave,41.90653983921552,-87.6397098575515
3300 n halsted st,41.941926,-87.64934840316789
2100 w 50th pl,41.80214046047076,-87.67712283527612
3000 w armitage,41.91751292163886,-87.70251265699059
2600 w harrison,41.87390874588648,-87.69164874588648
2500 w diversey,41.93216945325739,-87.690573
4700 w 64th st,41.77668049681857,-87.73986273376133
3100 n clark st,41.93906985651217,-87.6498583889723
1300 n ashland ave,41.90562866551221,-87.6676181156728
1 s parkside,41.88015756945597,-87.76641974665979
5400 s south shore drive,41.79666972284138,-87.58095890743314
800 w lakeside,41.96825947489747,-87.64976194463037
1700 n latrobe,41.9114331618097,-87.75698691038124
4200 n elston,41.95763047709049,-87.72494871331281
100 n dearborn st,41.88330213218225,-87.62949907271191
5700 w irving park road,41.953172446044015,-87.76965488926076
1000 n honore,41.89967435953197,-87.67354835953195
1100 w argyle,41.973275460470745,-87.65795186081135
7500 n ridge,42.01818895115125,-87.68450661117191
300 e randolph (ul) dr,41.88452347215618,-87.61982255398462
200 w grand av,41.891603529863055,-87.63442152844941
1800 w congress pw,41.87516753649385,-87.67164292499956
900 w washington blvd,41.88313552596792,-87.65010041909515
800 e 53rd,41.79866980157027,-87.6062485208647
3800 n drake,41.95028632944775,-87.71652096145168
7500 s wolcott,41.75737116180969,-87.67091028660026
1 e 21st st,41.85416326588413,-87.62704531145529
500 w 30th st,41.840031301457,-87.63908106481323
1 w parking lot a st,41.900900000000036,-87.62830999999994
2100 s spaulding,41.85343732944776,-87.70773934488408
900 n winchester,41.897860658895496,-87.67588040316791
3600 w shakespeare,41.92005748600596,-87.7170735
800 s laflin,41.871593946789744,-87.66422609382751
3000 s fort dearborn,41.84494730564611,-87.61049773153142
5700 s paulina,41.790221717179286,-87.6669573593108
2000 s archer,41.85516692505981,-87.63024222778583
4200 s california ave,41.81719399417162,-87.69451880102699
1000 w madison st,41.881689511541204,-87.65228227990652
200 w 23rd st,41.85104871855582,-87.63205971855581
1700 w ohio,41.892402518754565,-87.66977458673323
5700 w chicago,41.89483948600597,-87.76803191909515
1200 n stone st,41.90405506372901,-87.62585060506748
800 e 53rd street,41.79866980157027,-87.6062485208647
5400 s morgan,41.795966609210026,-87.65007541260294
100 e east lake shore dr,41.90086046436589,-87.6238424348782
100 n may st,41.883068017293404,-87.65562168478355
600 w randolph,41.884456493219325,-87.64315216763805
3200 w 63rd st,41.779038418850455,-87.70323281309965
2700 s state st,41.844253059283936,-87.6269762547314
3900 w gladys,41.876227486005966,-87.72329283527613
1300 w estes,42.011707013023155,-87.66298929110556
3100 w belle plaine,41.955835844097024,-87.70570234409702
1200 w devon,41.99826974099832,-87.66062251892308
800 w jackson boulevard,41.87802052044788,-87.64732944680765
800 w aldine,41.94185771591519,-87.64939041057937
1 e lake,41.88568023984377,-87.62788323984375
2000 s indiana,41.85543136405196,-87.62231456795033
800 s loomis st,41.87156257507647,-87.66172933377558
11900 s halsted,41.67775253665153,-87.64202821596645
2 e chestnut st,41.898406775210795,-87.62817572478924
4600 s lake park ave,41.811378224248436,-87.59453014836392
5300 s pulaski road,41.79695354954123,-87.72329880881728
1500 n hudson,41.90934482653356,-87.63978088484602
2000 w chase,42.014084920618814,-87.68058688347845
1 e monroe,41.88067711434136,-87.62767539455307
900 w monroe st,41.880522134150354,-87.64972381443188
2100 w 23rd st,41.850343486005954,-87.67845050291417
1600 s michigan ave,41.86016496728029,-87.62402865942144
1000 w berwyn,41.97828084095779,-87.65510987695667
1700 w melrose,41.9405844532574,-87.67126286081135
300 w ohio,41.89239648268776,-87.63634252553524
1800 s bishop,41.85777077717793,-87.6627374626429
7400 w ibsen,42.006221337059294,-87.81170482780333
3700 w berteau,41.957463675107604,-87.72044098579791
6500 s whipple,41.77522766472387,-87.69939837763266
1900 n albany,41.91570740743839,-87.70523840316788
500 s plymouth court,41.875483868054026,-87.62874558176075
3500 n lakeshore,41.946985006924905,-87.64247147033848
3000 w devon av,41.99750348211083,-87.70481044463037
